ID,NOM_TOPOGRAPHIE,VILLE,ARRONDISSEMENT,ID_VOIE_PUBLIQUE,LATITUDE,LONGITUDE
7809,Avenue des Tulipes,Québec,Charlesbourg,124557,46.89089334906265,-71.2813356567524
10390,Rue de Bastogne,Québec,Les Rivières,140648,46.836416186976265,-71.32478262751425
19043,Boulevard Laurier,Québec,Sainte-Foy–Sillery–Cap-Rouge,,46.76753964116469,-71.28190164362695
7810,Avenue des Tulipes,Québec,Charlesbourg,124558,46.89282309879714,-71.2831589236323
6763,Avenue Sainte-Thérèse,Québec,Beauport,126951,46.89429025570566,-71.22210544606824
11217,Montée des Cinquante,Québec,La Cité-Limoilou,,46.8299056333459,-71.1984775215355
7003,Rue des Pâquerettes,Québec,Charlesbourg,124541,46.88732882165257,-71.27861267548215
24085,Rue Irving,Québec,La Haute-Saint-Charles,123712,46.8620423790886,-71.39574114085082
7807,Avenue des Tulipes,Québec,Charlesbourg,124554,46.88806502115818,-71.2786344862635
7808,Avenue des Tulipes,Québec,Charlesbourg,124555,46.888971098157306,-71.27971471586628
12538,Boulevard Louis-XIV,Québec,Beauport,127578,46.896589472290174,-71.20797143935198
6506,Rue Marcadet,Québec,Beauport,127454,46.89266572301813,-71.21489906233307
11438,,Québec,La Cité-Limoilou,,46.83229124734172,-71.20550945622797
5780,Rue Jean-XXIII,Québec,Beauport,128211,46.88858108716531,-71.16969434219055
15580,Rue Paul-Émile-Giroux,Québec,Beauport,148086,46.88765315342241,-71.18581831798147
12131,Avenue Guilbault,Québec,Charlesbourg,203635,46.858760388376766,-71.27174443810968
10976,Rue Odilon-Lirette,Québec,Les Rivières,103842,46.855207260862166,-71.33839957724135
11448,Boulevard Henri-Bourassa,Québec,Beauport,125542,46.83492974638812,-71.20031201516886
11466,Rue Abraham-Martin,Québec,La Cité-Limoilou,,46.81962781519275,-71.19864853452962
11265,Boulevard Savard,Québec,Les Rivières,,46.850359028470415,-71.33368913746249
21856,Rue Marie-Fitzbach,Québec,Sainte-Foy–Sillery–Cap-Rouge,,46.7756126244124,-71.28257873090506
19817,Rue de l'Université,Québec,Sainte-Foy–Sillery–Cap-Rouge,116515,46.78119042045803,-71.26727595273353
20572,Rue de la Camomille,Québec,Les Rivières,200147,46.85085203325291,-71.33807051812389
1913,Carré Rose-Leclerc,Québec,Les Rivières,104565,46.848495093640175,-71.32575454520011
3624,Rue Marie-Lucie,Québec,Les Rivières,103575,46.85380750489337,-71.33058657122561
11254,Rue de Prague,Québec,Les Rivières,200319,46.84670533190888,-71.33826688520361
45523,Boulevard Pierre-Bertrand,Québec,Les Rivières,,46.839321220465436,-71.28810797679073
12682,Rue de l'Exposition,Québec,La Cité-Limoilou,,46.82759405865636,-71.24661221795935
11452,Rue Ressac,Québec,Beauport,,46.83326068024355,-71.19506318882328
517,Boulevard Wilfrid-Hamel,L'Ancienne-Lorette,,117420,46.796030992640354,-71.34901118404336
1936,Rue Charles-A.-Parent,Québec,Les Rivières,101055,46.847189793148694,-71.32181705331276
48735,Autoroute Duplessis,L'Ancienne-Lorette,,,46.7865119503387,-71.34931583844842
11425,Rue de Lunenburg,Québec,Les Rivières,141488,46.84166737484676,-71.33579396415658
11901,Avenue D'Assise,Québec,La Cité-Limoilou,,46.83233938418599,-71.24277211978516
12969,Avenue de la Roselière,Québec,Les Rivières,145187,46.819729800625225,-71.2874228328362
11434,,Québec,La Cité-Limoilou,,46.830774047918915,-71.20293844736592
165437,Rue Dalhousie,Québec,La Cité-Limoilou,105656,46.81788972224913,-71.21021703254969
6413,Route 138,Saint-Augustin-de-Desmaures,,129079,46.742458901035505,-71.46489847874638
19847,Chemin Saint-Louis,Québec,Sainte-Foy–Sillery–Cap-Rouge,,46.77044558092574,-71.26007249600012
19858,Boulevard Champlain,Québec,Sainte-Foy–Sillery–Cap-Rouge,116600,46.78638896684813,-71.235794592354
19861,Avenue Watt,Québec,Sainte-Foy–Sillery–Cap-Rouge,,46.787129137770606,-71.30255970497905
11449,Boulevard Henri-Bourassa,Québec,Beauport,133326,46.83556068506146,-71.19927519498202
12964,Rue de Port-Louis,Québec,Les Rivières,139812,46.81583981808847,-71.28262882346199
11439,,Québec,La Cité-Limoilou,,46.83184527376238,-71.20631116999546
11486,Rue d'Armorique,Québec,Charlesbourg,203634,46.898822638478876,-71.31909168690392
86,Rue Larche,Québec,Les Rivières,200876,46.842980997416056,-71.2992565694906
13341,Rue Saint-Olivier,Québec,La Cité-Limoilou,105374,46.80805044641383,-71.22738908967084
11903,Rue Soumande,Québec,La Cité-Limoilou,200615,46.83317134461072,-71.24466941121199
169306,Boulevard Pierre-Bertrand,Québec,Les Rivières,112870,46.82523321637185,-71.27289319807771
169307,Rue De Celles,Québec,Les Rivières,101245,46.82764685476764,-71.31055994854088
11436,,Québec,La Cité-Limoilou,,46.831937890410785,-71.20402019845739
11453,Boulevard Henri-Bourassa,Québec,Beauport,,46.83338091883012,-71.19426682744681
12150,Rue des Pléiades,Québec,La Haute-Saint-Charles,143287,46.879521544643,-71.33500167018047
19832,Rue de Bergerville,Québec,Sainte-Foy–Sillery–Cap-Rouge,116351,46.78007400155555,-71.24950811051247
11427,Boulevard Montmorency,Québec,La Cité-Limoilou,112449,46.82888230062632,-71.21711758296968
7603,Rue Bourget,Québec,Beauport,128883,46.87127097158005,-71.17831127517138
50651,Rue de l'Hêtrière,Québec,Sainte-Foy–Sillery–Cap-Rouge,,46.76365936779885,-71.37239259298968
10401,Rue de Bastogne,Québec,Les Rivières,140648,46.83630280115608,-71.32371636508061
11228,,Québec,La Cité-Limoilou,,46.83137143896389,-71.2056760343043
2050,Boulevard Bastien,Québec,Les Rivières,105237,46.85397015994011,-71.31488361222134
4087,Rue Einstein,Québec,Les Rivières,,46.793311567436994,-71.31124075358514
20883,Avenue du Patrimoine-Mondial,Québec,Les Rivières,141486,46.84422270637523,-71.33884357639738
12757,Rue des Fondateurs,Québec,Les Rivières,102197,46.85183626827498,-71.31712125039103
1459,Place Michel-Valcourt,Québec,Les Rivières,105732,46.856576987229886,-71.32949977204507
11450,Boulevard Henri-Bourassa,Québec,Beauport,133326,46.835909773881525,-71.1980691283148
12057,Avenue Kepler,Québec,Sainte-Foy–Sillery–Cap-Rouge,120464,46.78558978377612,-71.31256516543884
11229,Montée des Cinquante,Québec,La Cité-Limoilou,,46.83122544278053,-71.20579763031408
12886,Rue du Buffle,Québec,Charlesbourg,144426,46.88788555176863,-71.29607268076822
19829,Chemin Saint-Louis,Québec,Sainte-Foy–Sillery–Cap-Rouge,,46.77722332469432,-71.2480732927554
1106,Rue du Chalutier,Québec,La Cité-Limoilou,101305,46.81730410228077,-71.22692831351902
11311,Rue de la Girandole,Québec,Les Rivières,136849,46.84840245016883,-71.28613079354854
11227,Montée des Cinquante,Québec,La Cité-Limoilou,,46.829893755454954,-71.20705104774574
169817,,Québec,La Cité-Limoilou,,46.8292977300189,-71.20397232534587
12915,Boulevard Montmorency,Québec,La Cité-Limoilou,,46.82959136476529,-71.2173474671188
19814,Allée de l'Université,Québec,Sainte-Foy–Sillery–Cap-Rouge,116537,46.778249300516514,-71.26994204967302
13427,Rue de l'Etna,Québec,La Haute-Saint-Charles,143326,46.84959248213325,-71.42542955225318
5952,Rue Jean-XXIII,Québec,Beauport,128585,46.8794839658346,-71.16842368331712
6370,Rue Jean-Froissart,Québec,Beauport,127126,46.88784863318639,-71.22039433604361
6456,Rue Rocheleau,Québec,Beauport,127807,46.880479539616864,-71.21901580031243
12329,Rue Gérard-Delage,Québec,Beauport,127997,46.86586594233435,-71.1934858146046
5752,Place Boissière,Québec,Beauport,128383,46.89421103074343,-71.16449434435361
19819,Rue de l'Université,Québec,Sainte-Foy–Sillery–Cap-Rouge,,46.780136531603034,-71.27091703450266
11429,Rue des Sables,Québec,La Cité-Limoilou,,46.82107028161784,-71.22007617262193
12140,Rue des Perséides,Québec,La Haute-Saint-Charles,139887,46.879432625799836,-71.33628444927356
11218,Montée des Cinquante,Québec,La Cité-Limoilou,,46.83077822962607,-71.20902963265212
167929,Boulevard de l'Ormière,Québec,La Haute-Saint-Charles,100770,46.83588006324603,-71.3557402561912
3981,Rue Seigneuriale,Québec,Beauport,128096,46.875261668260435,-71.1974340022372
11857,Rue Boisbrillant,Québec,Sainte-Foy–Sillery–Cap-Rouge,114082,46.75361168643907,-71.35530285370801
21852,Boulevard des Gradins,Québec,Les Rivières,102458,46.84340688878894,-71.27826614669712
11230,Montée des Cinquante,Québec,La Cité-Limoilou,,46.83046985621384,-71.20608775872353
11176,11e Rue,Québec,La Cité-Limoilou,104653,46.82750430573463,-71.229396234079
11437,,Québec,La Cité-Limoilou,,46.832586837288034,-71.20462211685403
18793,Route de l'Église,Québec,Sainte-Foy–Sillery–Cap-Rouge,,46.76833248164162,-71.29901965150661
11435,,Québec,La Cité-Limoilou,,46.83122719270508,-71.20335768860409
19915,Rue du Capitaine-Bernier,Québec,Sainte-Foy–Sillery–Cap-Rouge,200013,46.76993825934809,-71.36324038153634
11049,Boulevard Saint-Jacques,Québec,Les Rivières,105175,46.83280131710562,-71.32910179461626
12758,Rue Raymond-Déry,Québec,Les Rivières,101796,46.8534621882365,-71.31756853121185
11451,Boulevard Henri-Bourassa,Québec,Beauport,,46.83456473403509,-71.19503319837875
174,Rue Soumande,Québec,Les Rivières,,46.82273008962661,-71.25828515135171
10514,Rue Einstein,Québec,Sainte-Foy–Sillery–Cap-Rouge,120529,46.78759480431155,-71.32108884770739
12149,Rue des Pléiades,Québec,La Haute-Saint-Charles,148129,46.87936371216417,-71.33420719980501
2032,Rue des Aïeux,Québec,Les Rivières,104208,46.85034736352035,-71.31598735126659
11249,Avenue du Patrimoine-Mondial,Québec,Les Rivières,146489,46.84653462677991,-71.34102490636428
13950,Rue des Adirondacks,Québec,Beauport,128729,46.88063190053776,-71.1904383393043
167430,Rue Xavier-Giroux,Québec,Beauport,,46.891131520226494,-71.15498719640576
2036,Rue Raymond-Déry,Québec,Les Rivières,101797,46.854204483827,-71.31799826413936
13126,Rue de la Carline,Québec,Les Rivières,107680,46.84790391018713,-71.33117702651148
2073,Boulevard Bastien,Québec,Les Rivières,105236,46.85242378418,-71.31094173708901
3610,Carré Cluseau,Québec,Les Rivières,101564,46.85602612628375,-71.33788855893859
642,Rue de la Presqu'île,Québec,Les Rivières,,46.81029308952907,-71.297380275418
12756,Avenue des Ancêtres,Québec,Les Rivières,100135,46.85224287595659,-71.3192646689052
44250,Rue de Vérone,Québec,Les Rivières,201821,46.842271232959185,-71.33111096747103
45851,Boulevard des Gradins,Québec,Les Rivières,102458,46.842193057713125,-71.27730845021844
2056,Rue du Fenil,Québec,Les Rivières,102174,46.85193506899336,-71.31162802800974
1897,Rue Coursol,Québec,Les Rivières,101691,46.84602013628937,-71.3273235555139
1134,Avenue des Ancêtres,Québec,Les Rivières,100135,46.853201435187586,-71.32016320413034
12755,Rue Marie-Parent,Québec,Les Rivières,103701,46.85043745360342,-71.3217016167884
47776,Rue de Stockholm,Québec,Les Rivières,201727,46.849575229693016,-71.34211356964427
11252,Avenue de Varsovie,Québec,Les Rivières,146486,46.84646437828233,-71.33996704044037
6799,Rue de Massabielle,Québec,Beauport,127346,46.883507905408315,-71.15435419280136
43929,Rue de Vérone,Québec,Les Rivières,200644,46.847560969966636,-71.33652897540915
1927,Rue de Chamerolles,Québec,Les Rivières,136209,46.84931096925642,-71.33354600107457
10972,Rue Auguste-Renoir,Québec,La Haute-Saint-Charles,104371,46.860851120832336,-71.3319386065961
12347,Rue Courtois,Québec,Les Rivières,101672,46.84518381025485,-71.3230929168397
11804,Rue des Alleghanys,Québec,Beauport,128153,46.87887158197713,-71.19838066348198
1898,Rue Coursol,Québec,Les Rivières,101690,46.84690755248584,-71.32629902261351
11415,Rue de Carthagène,Québec,Les Rivières,141466,46.843699584906254,-71.33770001012113
2038,Rue Chauvet,Québec,Les Rivières,101469,46.85295961362416,-71.31603204624213
10994,Avenue Chauveau,Québec,La Haute-Saint-Charles,106218,46.833670214133534,-71.34739766802672
170329,,Québec,Les Rivières,,46.85738141711327,-71.32907355572763
6804,Rue Anick,Québec,Beauport,128008,46.89322865395201,-71.19176562207439
10351,Rue La Mariouche,Québec,Beauport,128003,46.8950949048228,-71.19149148575231
3642,Carré Mérimée,Québec,Les Rivières,101836,46.855728758987404,-71.32839269740305
11262,Rue de Tolède,Québec,Les Rivières,146448,46.84515547349019,-71.33858377235063
10993,Avenue Chauveau,Québec,La Haute-Saint-Charles,106218,46.832909822395024,-71.34872341578595
43934,Rue de Vérone,Québec,Les Rivières,200643,46.84618256641384,-71.33522907422719
1130,Rue Jourdain,Québec,Les Rivières,102803,46.85142046957419,-71.32373900874164
3616,Rue Saint-Charles,Québec,Les Rivières,104954,46.852671921711895,-71.32832712114082
11900,Avenue de la Normandie,Québec,La Cité-Limoilou,,46.83214619229079,-71.24334276728362
11484,Rue Gaudias-Villeneuve,Québec,Charlesbourg,141648,46.90655553403644,-71.3488288998523
12155,Rue des Feuillus,Québec,La Haute-Saint-Charles,147607,46.881325439941065,-71.33417873584057
5804,Rue Éloïse,Québec,Beauport,128526,46.89076451715986,-71.15381476795407
12967,Rue Paquin,Québec,Les Rivières,145226,46.818210727874735,-71.28794095725111
19815,Rue de l'Université,Québec,Sainte-Foy–Sillery–Cap-Rouge,133026,46.77974046114862,-71.2692325949121
12169,Rue du Zénith,Québec,La Haute-Saint-Charles,144310,46.87978237409433,-71.3305450549673
11059,Boulevard Saint-Jacques,Québec,Les Rivières,105172,46.82471892784583,-71.32142879590872
11234,Montée des Cinquante,Québec,La Cité-Limoilou,,46.830204499859086,-71.20267563612819
19818,Rue des Sports,Québec,Sainte-Foy–Sillery–Cap-Rouge,144787,46.78554574114856,-71.27869844616501
11457,Rue Abraham-Martin,Québec,La Cité-Limoilou,,46.821897666902196,-71.21229567092345
10975,Place De Beaumarchais,Québec,Les Rivières,100654,46.85528708452178,-71.3264572589675
20886,Boulevard Robert-Bourassa,Québec,Les Rivières,200144,46.84403964528889,-71.33151661344385
3617,Rue Meredith,Québec,Les Rivières,103943,46.85393853590979,-71.32827374970307
2040,Rue Chauvet,Québec,Les Rivières,101469,46.850914448905144,-71.3141175043337
2093,Boulevard Bastien,Québec,La Haute-Saint-Charles,100577,46.85746259435775,-71.33975540598368
11409,Avenue du Patrimoine-Mondial,Québec,Les Rivières,141567,46.84232158823564,-71.33549369229834
8292,Avenue Faneuil,Québec,Charlesbourg,122949,46.86603605484796,-71.24946330295049
1899,Rue du Carrousel,Québec,Les Rivières,101195,46.84566302715328,-71.32630582081177
10979,Rue du Calumet,Québec,Les Rivières,101000,46.84528858615248,-71.32997065087571
1701,Rue du Roi,Québec,La Cité-Limoilou,104517,46.81551748500936,-71.22325316499318
15174,Rue Richelieu,Québec,La Cité-Limoilou,104401,46.8120523750696,-71.21788621127769
6444,Rue De Montherlant,Québec,Beauport,127121,46.885765048674514,-71.22060144935794
1920,Rue Coursol,Québec,Les Rivières,147827,46.84432137158732,-71.3275635470702
11410,Rue de Carthagène,Québec,Les Rivières,145666,46.84325967598824,-71.33621930240415
1479,Rue André-Morin,Québec,Les Rivières,102478,46.8564700666499,-71.32353551271392
11890,Rue du Roi,Québec,La Cité-Limoilou,104518,46.81579610057098,-71.22222357549279
11932,Rue du Roi,Québec,La Cité-Limoilou,104518,46.81611330188536,-71.22146512940303
1925,Rue de Chevreuse,Québec,Les Rivières,107683,46.847055764906976,-71.33134481310974
38816,Rue Yvon-Dolbec,L'Ancienne-Lorette,,135427,46.79069970052906,-71.3509317589579
55765,Rue Albert-Dumouchel,L'Ancienne-Lorette,,116749,46.79537805775283,-71.35179101404565
20571,Boulevard Robert-Bourassa,Québec,Les Rivières,200149,46.85048743873481,-71.33877168063547
1940,Rue Marie-Parent,Québec,Les Rivières,103700,46.84952152833264,-71.3208448198621
1466,Rue Thomas-Pope,Québec,Les Rivières,100790,46.85922135315496,-71.33164750777836
45524,Boulevard Pierre-Bertrand,Québec,Les Rivières,,46.83976210794621,-71.28920700983014
20887,Rue de la Camomille,Québec,Les Rivières,200142,46.84456513959774,-71.33108081487663
1908,Rue de la Coupole,Québec,Les Rivières,101666,46.84463226385608,-71.32557959930459
19207,Rue de la Picardie,Québec,Sainte-Foy–Sillery–Cap-Rouge,,46.77369063422963,-71.28842097991915
44248,Rue de La Havane,Québec,Les Rivières,200633,46.84165159582532,-71.3314099114762
473,Boulevard Wilfrid-Hamel,L'Ancienne-Lorette,,116879,46.79401157780935,-71.35201948067775
1135,Rue des Explorateurs,Québec,Les Rivières,102128,46.85365382092836,-71.31907083699964
2069,Boulevard Bastien,Québec,Les Rivières,105235,46.8510086822468,-71.3090898206017
10983,Boulevard Saint-Jacques,Québec,Les Rivières,141446,46.84633224124152,-71.34411367729517
50653,,L'Ancienne-Lorette,,,46.789633907806326,-71.34934408315374
10987,Boulevard Saint-Jacques,Québec,Les Rivières,105178,46.841470156969955,-71.34077123106937
10978,Rue de la Sultane,Québec,Les Rivières,105523,46.855020170332125,-71.3359090235551
1930,Rue de la Carline,Québec,Les Rivières,139087,46.84718021742245,-71.33281050838892
48733,Autoroute Duplessis,L'Ancienne-Lorette,,,46.787438171699215,-71.35015192505226
2051,Boulevard Bastien,Québec,Les Rivières,105238,46.85450383267229,-71.31623082644097
49363,Rue Marchet,L'Ancienne-Lorette,,117301,46.79803665803988,-71.34024177591532
507,Boulevard Wilfrid-Hamel,L'Ancienne-Lorette,,117301,46.797521524973476,-71.33954747810914
3481,8e Avenue,Québec,La Cité-Limoilou,100453,46.82368611490376,-71.22108815358379
1922,Rue du Cabriolet,Québec,Les Rivières,100980,46.84705522682489,-71.32947957576036
45217,Boulevard des Galeries,Québec,Les Rivières,,46.83122227624624,-71.29340789661715
170428,Boulevard des Chutes,Québec,Beauport,,46.87276270811512,-71.17178452838021
2197,Rue Dalhousie,Québec,La Cité-Limoilou,101752,46.81709850665827,-71.20255061952142
1572,Avenue Chauveau,Québec,Les Rivières,101455,46.8428041729135,-71.32774600174852
202,Boulevard Wilfrid-Hamel,L'Ancienne-Lorette,,,46.796562960649915,-71.34337401483174
43938,Rue de Panama,Québec,Les Rivières,200638,46.84440867295038,-71.33397904052309
1917,Rue de Martigny,Québec,Les Rivières,103352,46.84891436603034,-71.3292926907131
6554,Rue de Toulon,Saint-Augustin-de-Desmaures,,139768,46.75403538939884,-71.43361632685517
19343,Rue de l'Agriculture,Québec,Sainte-Foy–Sillery–Cap-Rouge,118525,46.77634422448227,-71.27794079652426
1909,Rue Courtois,Québec,Les Rivières,101675,46.84630733656824,-71.32586722975334
170427,Boulevard Louis-XIV,Québec,Beauport,,46.8990472514616,-71.19377572040486
513,Boulevard Wilfrid-Hamel,L'Ancienne-Lorette,,117418,46.798039670451416,-71.34430655461455
10475,Rue de Coligny,Québec,Les Rivières,101581,46.8400035692908,-71.29264426806976
1651,Rue des Fous-de-Bassan,Québec,La Haute-Saint-Charles,100062,46.84436051957884,-71.3925520805741
18138,Avenue De Rochebelle,Québec,Sainte-Foy–Sillery–Cap-Rouge,119647,46.772010201670874,-71.30135066735274
18915,Avenue De Rochebelle,Québec,Sainte-Foy–Sillery–Cap-Rouge,119649,46.768373213775995,-71.30094891833531
6556,Rue d'Anvers,Saint-Augustin-de-Desmaures,,128711,46.752361987690904,-71.43652869081717
8579,Rue du Val-d'Oise,Québec,Charlesbourg,122414,46.87243780009983,-71.27973117276358
8956,76e Rue Est,Québec,Charlesbourg,121394,46.85988906840985,-71.26505917852886
6893,Rue La Ferté,Québec,Beauport,127853,46.87566807616643,-71.21793479131507
6378,Avenue du Bourg-Royal,Québec,Beauport,,46.856965486434426,-71.21898423526697
5872,Avenue Mallet,Québec,Beauport,126706,46.862075466800285,-71.22794629237588
18674,Chemin Sainte-Foy,Québec,Sainte-Foy–Sillery–Cap-Rouge,119848,46.77445501663221,-71.31379115960736
13610,Rue du Lyonnais,Québec,Charlesbourg,122896,46.87195051054968,-71.279289847026
4617,Chemin du Roy,Saint-Augustin-de-Desmaures,,132941,46.73153565777053,-71.46125260301274
6379,Rue du Carrefour,Québec,Beauport,,46.85912244497267,-71.21959072814163
24405,Rue Antoine-Fortier,Québec,Beauport,134286,46.868458100853616,-71.20692583916245
18035,Rue Jean-Durand,Québec,Sainte-Foy–Sillery–Cap-Rouge,,46.78930130751852,-71.28726357931497
18707,Rue Jean-Durand,Québec,Sainte-Foy–Sillery–Cap-Rouge,,46.79019773494275,-71.28482804659637
13338,Rue Turgeon,Québec,La Cité-Limoilou,105713,46.81026611184559,-71.22875483989023
8820,Rue du Soleil-Levant,Québec,La Haute-Saint-Charles,135687,46.877609792937086,-71.32601040327103
18892,Rue de Bellevue,Québec,Sainte-Foy–Sillery–Cap-Rouge,117740,46.78858525082977,-71.26514097014139
12596,Rue du Manège,Québec,Beauport,125870,46.86018395020792,-71.18579356694957
169468,Rue de l'Apogée,Québec,La Haute-Saint-Charles,,46.880346652849845,-71.3239812199832
142487,67e Rue Est,Québec,Charlesbourg,,46.85579384268185,-71.25802733672178
2202,Rue Dalhousie,Québec,La Cité-Limoilou,101750,46.81579448698701,-71.20188068501335
163720,Avenue de Brunoy,Québec,Charlesbourg,,46.86088375927671,-71.24944807590795
55443,Boulevard des Chutes,Québec,Beauport,133486,46.85601805415731,-71.19182476593865
15556,Rue Chapais,Québec,Beauport,125619,46.85919139628494,-71.18703846321925
12324,Rue du Fargy,Québec,Beauport,125600,46.858079158340594,-71.18846156340406
87134,52e Rue Est,Québec,Charlesbourg,,46.84944139775649,-71.25040863690427
54803,Boulevard des Chutes,Québec,Beauport,126184,46.85486733275887,-71.19488137810825
169469,Rue de Rigel,Québec,La Haute-Saint-Charles,,46.880901854200594,-71.32385144695984
6277,Rue Labelle,Québec,Beauport,128840,46.871706434878,-71.18075622472345
170361,,Québec,La Haute-Saint-Charles,,46.864993589792846,-71.349936595213
167490,Carré Marie-Guérin,Québec,Beauport,,46.91349243976165,-71.20309502158119
13963,Rue du Hibou,Québec,Beauport,127638,46.87338606934615,-71.2199106807457
166051,Avenue De La Vérendrye,Québec,La Cité-Limoilou,,46.83562700633724,-71.21427580438619
2422,Avenue Chauveau,Québec,La Haute-Saint-Charles,101458,46.829022322936,-71.35436506574358
682,Rue Claisse,Québec,Les Rivières,,46.81588519016575,-71.31330553275224
11769,Rue de la Licorne,Québec,Beauport,128150,46.898377224016144,-71.17446047310162
36565,Rue de Cassiopée,Québec,La Haute-Saint-Charles,147209,46.883046542631035,-71.33120681858483
2789,Avenue Chauveau,Québec,La Haute-Saint-Charles,101457,46.83179295064622,-71.35033627125985
170426,Avenue Morency,Québec,Beauport,,46.874979267239354,-71.15872735995501
9952,Rue des Carouges,Québec,La Haute-Saint-Charles,117677,46.902081480829764,-71.35994981628197
19889,Boulevard du Versant-Nord,Québec,Sainte-Foy–Sillery–Cap-Rouge,121224,46.77153948663431,-71.33447986556284
170396,,Saint-Augustin-de-Desmaures,,,46.76098608544657,-71.51786868974428
11790,Boulevard Albert-Chrétien,Québec,Beauport,,46.86656306752445,-71.21960146158047
10101,Rue de la Douceur,Québec,La Haute-Saint-Charles,132255,46.893288006560276,-71.37587411923612
6296,Boulevard des Chutes,Québec,Beauport,129110,46.86975250672937,-71.17614673840868
14084,Rue de Bromont,Québec,Beauport,127840,46.87610492945507,-71.21480208975231
11463,Rue Abraham-Martin,Québec,La Cité-Limoilou,106833,46.82122457498807,-71.20157539407735
4171,Rue Tronquet,Québec,Beauport,128033,46.88678763634652,-71.19050733773798
18588,Rue François-Arteau,Québec,Sainte-Foy–Sillery–Cap-Rouge,120297,46.78292300532136,-71.30033734660836
13914,Rue Lavoisier,Québec,Les Rivières,,46.798391671287895,-71.27394683209904
59628,Avenue Chapdelaine,Québec,Sainte-Foy–Sillery–Cap-Rouge,117800,46.793706290859674,-71.2694077119525
514,Boulevard Wilfrid-Hamel,L'Ancienne-Lorette,,117420,46.797594909017775,-71.34545252313345
19839,Chemin Saint-Louis,Québec,Sainte-Foy–Sillery–Cap-Rouge,,46.773653612456485,-71.25123837507935
11267,Boulevard Bastien,Québec,Les Rivières,,46.85628764528285,-71.34030317483993
18199,Avenue Maricourt,Québec,Sainte-Foy–Sillery–Cap-Rouge,,46.76384051401518,-71.31283695294319
1945,Avenue des Ancêtres,Québec,Les Rivières,100131,46.84942455106433,-71.31662845159593
1467,Rue du Foyer,Québec,Les Rivières,102232,46.86040869749365,-71.33067525587101
9418,Rue du Romarin,Québec,La Haute-Saint-Charles,115774,46.88121513154733,-71.33978623666823
20578,Rue de Prague,Québec,Les Rivières,146490,46.847090595734926,-71.33999300937799
11419,Rue de Quito,Québec,Les Rivières,144086,46.840136575791696,-71.33880737641559
3633,Rue de Bretagne,Québec,Les Rivières,100915,46.85196967424209,-71.33472224959475
2103,Rue Jeanne-Lavery,Québec,Les Rivières,102757,46.838814346868745,-71.30436268645234
169305,Avenue Roland-Beaudin,Québec,Sainte-Foy–Sillery–Cap-Rouge,,46.77167078499221,-71.29831695615441
170491,,Québec,La Haute-Saint-Charles,,46.841754323149424,-71.41599062674021
170490,,Québec,La Haute-Saint-Charles,,46.84279873205667,-71.4174865646446
169465,Rue de l'Apogée,Québec,La Haute-Saint-Charles,,46.87958625989547,-71.32276924919037
170489,,Québec,La Haute-Saint-Charles,,46.84319806418203,-71.41806906686232
3628,Boulevard Savard,Québec,Les Rivières,104911,46.85095547942724,-71.33419645873387
19816,Rue de l'Université,Québec,Sainte-Foy–Sillery–Cap-Rouge,,46.77943926973726,-71.26706507063356
167161,Rue Chagall,Québec,La Haute-Saint-Charles,,46.84044755515582,-71.41518313899925
53857,Rue des Condors,Québec,La Haute-Saint-Charles,201626,46.84312581317913,-71.41736399670143
47451,Rue de Burgos,Québec,Les Rivières,201702,46.838600317589446,-71.33408759650854
3775,Rue Barrin,Québec,La Cité-Limoilou,103660,46.79317105457754,-71.2541005882916
120,Rue Larche,Québec,Les Rivières,140166,46.84631073825048,-71.29325247909024
13127,Rue de Chamerolles,Québec,Les Rivières,136210,46.84902167037073,-71.33471176980912
5899,Rue du Long-Sault,Québec,Beauport,126450,46.85881442149187,-71.20833728524316
1461,Boulevard Bastien,Québec,Les Rivières,100569,46.85723858520584,-71.3273409702429
169348,15e Rue,Québec,La Cité-Limoilou,,46.83018224151578,-71.23189578700953
14896,Avenue Baillairgé,Québec,La Cité-Limoilou,104392,46.79334090807828,-71.26490775925916
167886,Boulevard Henri-Bourassa,Québec,Charlesbourg,,46.85021817820718,-71.24442927097552
10745,Rue Desrochers,Québec,Les Rivières,112868,46.820098525285175,-71.26903853379955
18599,Chemin des Quatre-Bourgeois,Québec,Sainte-Foy–Sillery–Cap-Rouge,118814,46.78204775345383,-71.2878454877562
47768,Rue d'Avila,Québec,Les Rivières,201722,46.84876649534077,-71.34422599258967
11174,Rue de la Belle-Meunière,Québec,Les Rivières,100789,46.852780604905846,-71.3314852041927
1463,Boulevard Savard,Québec,Les Rivières,104920,46.856340204732945,-71.33607536834022
18750,Carré Pijart,Québec,Sainte-Foy–Sillery–Cap-Rouge,118768,46.786044754538416,-71.2913815712092
3635,Rue de Boulogne,Québec,Les Rivières,100850,46.85131264448231,-71.33593016160539
9625,Chemin de la Plage-Jacques-Cartier,Québec,Sainte-Foy–Sillery–Cap-Rouge,114599,46.74669859258448,-71.33653228309535
6422,Chemin du Roy,Saint-Augustin-de-Desmaures,,132943,46.72717235027408,-71.46956574690562
47135,Rue Marie-Lucie,Québec,Les Rivières,103577,46.85555965103921,-71.33222418291818
19155,Rue Anthony-Law,Québec,Sainte-Foy–Sillery–Cap-Rouge,118043,46.77139469846708,-71.27128448090794
170398,,Saint-Augustin-de-Desmaures,,,46.72503556006156,-71.47530596724394
14464,Autoroute Duplessis,Québec,Sainte-Foy–Sillery–Cap-Rouge,130659,46.78555805383272,-71.35065818647463
19240,Chemin Sainte-Foy,Québec,Sainte-Foy–Sillery–Cap-Rouge,,46.779243704206266,-71.2996411907106
11416,Rue de Mexico,Québec,Les Rivières,144066,46.840786717257295,-71.33912276521946
6515,Rue des Cassailles,Québec,Beauport,137186,46.87736609316089,-71.2053638191674
14502,Rue Dubeau,Québec,Beauport,127448,46.89134355528545,-71.21766430514978
47765,Rue de Potosi,Québec,Les Rivières,203653,46.84956414769975,-71.34472854494959
12353,Boulevard Pierre-Bertrand,Québec,Les Rivières,103973,46.84895751789713,-71.29516407086359
11261,Avenue du Patrimoine-Mondial,Québec,Les Rivières,146446,46.84504707655955,-71.33963418549341
1939,Rue Marie-Parent,Québec,Les Rivières,103700,46.84845829518233,-71.31985544514639
6316,Rue Boisvert,Québec,Beauport,125572,46.854681649407574,-71.1897391204115
47764,Boulevard Johnny-Parent,Québec,Les Rivières,201731,46.849853404468234,-71.34544790499201
13125,Rue du Cabriolet,Québec,Les Rivières,100980,46.84782699101339,-71.32814243745776
10058,Rue des Couventines,Québec,La Haute-Saint-Charles,118924,46.90907303906352,-71.37228152332922
19246,Chemin Sainte-Foy,Québec,Sainte-Foy–Sillery–Cap-Rouge,,46.779595028248075,-71.3001327718826
82966,Boulevard Saint-Claude,Québec,La Haute-Saint-Charles,104966,46.845550673568,-71.3783812873874
14039,Avenue Royale,Québec,Beauport,125784,46.86446091016278,-71.18526924397857
1926,Rue Chomina,Québec,Les Rivières,136208,46.84877070251453,-71.33309362181309
6520,Rue du Hibou,Québec,Beauport,127641,46.872602099695676,-71.21947206346367
13928,Avenue Joseph-Giffard,Québec,Beauport,128213,46.874955732428226,-71.2006791183177
510,Boulevard Wilfrid-Hamel,L'Ancienne-Lorette,,117416,46.79929229270228,-71.3410377194567
5504,Boulevard Sainte-Anne,Québec,Beauport,126129,46.864638767923836,-71.16697374063813
4643,Rue de Rotterdam,Saint-Augustin-de-Desmaures,,128720,46.751874263582884,-71.43841369252625
6382,Rue du Carrefour,Québec,Beauport,,46.86123726835782,-71.21577937264509
167517,Rue Rhéaume,Québec,Beauport,,46.85780075375521,-71.22168482071339
10133,Rue Clemenceau,Québec,Beauport,128228,46.86948909294713,-71.20406249890132
6806,Rue Ernest-Cormier,Québec,Beauport,127797,46.89076620165288,-71.20257723659246
6374,Avenue du Bourg-Royal,Québec,Beauport,,46.857752945936475,-71.22014661159642
14412,Rue de la Parmentière,Québec,Beauport,141686,46.879883594228325,-71.21274864437979
10131,Rue Clemenceau,Québec,Beauport,134289,46.86762015030151,-71.20694585965038
4188,Rue Ronsard,Québec,Beauport,129237,46.88315544139844,-71.19723628717254
15097,Rue de la Farandole,Québec,Beauport,128424,46.886665309045,-71.16541984270002
15682,Rue Cyrille-Duquet,Québec,Les Rivières,,46.799141610032386,-71.26222722184266
170242,Boulevard Sainte-Anne,Québec,Beauport,,46.85268819798161,-71.19345233218739
20576,Boulevard Robert-Bourassa,Québec,Les Rivières,147368,46.848403646485394,-71.33574379190979
44247,Rue de Morelia,Québec,Les Rivières,200634,46.84182434814956,-71.33290292634159
11006,Boulevard Wilfrid-Hamel,Québec,Les Rivières,106033,46.8034736760234,-71.32952676947794
11492,Rue Clemenceau,Québec,Beauport,134289,46.86681470441738,-71.20813878494565
52898,Rue Picasso,Québec,La Haute-Saint-Charles,200956,46.8826666213321,-71.33750132504386
46803,Rue Isabelle-Aubert,Québec,Les Rivières,,46.81648397610207,-71.2449148233257
1132,Avenue des Ancêtres,Québec,Les Rivières,100132,46.85036207582787,-71.31750488402801
1007,Boulevard Champlain,Québec,La Cité-Limoilou,142167,46.798612970588714,-71.2165169629444
166631,Route de Fossambault,Saint-Augustin-de-Desmaures,,,46.777183117251454,-71.50915344766294
7485,Rue du Harfang,Québec,Beauport,127644,46.87430197618614,-71.21969867593016
3638,Rue du Superbe,Québec,Les Rivières,105529,46.85308752503412,-71.33749219048575
14045,Rue du Grand-Duc,Québec,Beauport,127654,46.876401524182405,-71.220548282325
6632,Rue Saint-Exupéry,Québec,Beauport,128300,46.88449643253046,-71.17101099843755
5943,Avenue du Bourg-Royal,Québec,Beauport,133249,46.85927934879638,-71.22116193927882
34963,Rue d'Everell,Québec,Beauport,200476,46.87250596115734,-71.21359450285459
6454,Rue Lacomblé,Québec,Beauport,127802,46.881775177528134,-71.21723754614392
5850,Rue Diane,Québec,Beauport,128833,46.87248880630036,-71.1823656319143
170457,,Québec,La Haute-Saint-Charles,,46.83861872478407,-71.35774406367014
14252,Avenue du Bourg-Royal,Québec,Beauport,,46.8574403290204,-71.2208746149962
170458,,Saint-Augustin-de-Desmaures,,,46.74783487567693,-71.45946808639758
21534,Boulevard Lebourgneuf,Québec,Les Rivières,200039,46.83137927078999,-71.30433451397175
6765,Avenue Saint-Michel,Québec,Beauport,127554,46.892063738718896,-71.20633667689889
2152,Avenue Duval,Québec,La Cité-Limoilou,102016,46.833986991355296,-71.25145159086146
7470,Rue Clemenceau,Québec,Beauport,126660,46.86228690898949,-71.21862021686854
84,Rue Le Mesnil,Québec,Les Rivières,106237,46.83825515971056,-71.29345328762567
18449,Rue de Tripoli,Québec,Sainte-Foy–Sillery–Cap-Rouge,119760,46.77186071076307,-71.3090635737242
6514,Rue du Harfang,Québec,Beauport,127647,46.873657445147735,-71.22116377388053
13548,Rue Isaïe,Québec,Beauport,128481,46.888572597936175,-71.15751909648401
6814,Rue Francine,Québec,Beauport,127854,46.88807023383839,-71.20796072962527
15516,Avenue Saint-David,Québec,Beauport,201407,46.86516687149294,-71.21553338581445
12625,Avenue du Bourg-Royal,Québec,Beauport,,46.85735400837743,-71.21933030258904
14385,Rue des Geais,Québec,La Haute-Saint-Charles,118538,46.91567585494417,-71.38366648961069
7483,Rue du Hibou,Québec,Beauport,127897,46.87318140634211,-71.21849693557658
42330,Rue Rosario-J.-Rhéaume,Québec,La Haute-Saint-Charles,136786,46.91333039058699,-71.38503279079691
6025,Boulevard Magella-Laforest,Québec,Beauport,127319,46.88028052209022,-71.15598280501042
1378,Boulevard Pierre-Bertrand,Québec,Les Rivières,,46.83948505243378,-71.28598074730554
15107,Rue Clemenceau,Québec,Beauport,,46.86912276177988,-71.20901685209593
53206,Rue de la Grande-Ourse,Québec,La Haute-Saint-Charles,200218,46.88279124845467,-71.33216230503552
9975,Rue Armand-Tremblay,Québec,La Haute-Saint-Charles,118483,46.913021916496994,-71.38399082314504
9976,Rue Armand-Tremblay,Québec,La Haute-Saint-Charles,118483,46.913678100984434,-71.38259446249049
53843,Rue Picasso,Québec,La Haute-Saint-Charles,200956,46.88193004503161,-71.33676613534648
10469,Avenue du Lac-Saint-Charles,Québec,La Haute-Saint-Charles,131557,46.9149193087172,-71.38169297757021
6831,Rue de Bromont,Québec,Beauport,127839,46.874961362237165,-71.21430517406671
5861,Rue De Méjanès,Québec,Beauport,127601,46.86517194678911,-71.23210219532497
11808,Rue de la Girouille,Québec,Beauport,144166,46.87884577291206,-71.21246382930562
1813,Boulevard Père-Lelièvre,Québec,Les Rivières,104097,46.81187921689777,-71.3022830309991
19806,Rue Albert-Lozeau,Québec,Sainte-Foy–Sillery–Cap-Rouge,116185,46.7737265430159,-71.26994384182329
6830,Rue Ozias-Leduc,Québec,Beauport,127869,46.87707218473558,-71.21650446749425
19510,Rue Nérée-Beauchemin,Québec,Sainte-Foy–Sillery–Cap-Rouge,116156,46.77313711393677,-71.26930011999845
1905,Boulevard des Cimes,Québec,La Haute-Saint-Charles,101520,46.84887189476135,-71.37936500456446
14737,Avenue Alphonse-Dupuis,Québec,Beauport,127593,46.865371927701574,-71.23039935244715
42018,Rue Elzéar-Verreault,Québec,Beauport,200478,46.87372791764642,-71.20960803771175
6832,Rue Arany,Québec,Beauport,127820,46.87603277816514,-71.21347700332124
42006,Rue de la Girouille,Québec,Beauport,200574,46.87737848916365,-71.20897839219552
15091,Avenue Nordique,Québec,Beauport,148087,46.89000591140617,-71.18685424035517
5855,Avenue de Montmirail,Québec,Beauport,126717,46.856049917677836,-71.2215800665499
10723,Rue Fernand-Dufour,Québec,Les Rivières,114001,46.8234847506228,-71.28245805560093
11953,Boulevard Albert-Chrétien,Québec,Beauport,127909,46.86529536086473,-71.2186232397453
6894,Rue Le Chenez,Québec,Beauport,127826,46.87679155080992,-71.2182907377472
7486,Rue du Grand-Duc,Québec,Beauport,127652,46.87504964219118,-71.22070518095038
6527,Rue Adolphe-Légaré,Québec,Beauport,127628,46.870309330106096,-71.2216609686377
12702,,Québec,La Cité-Limoilou,117475,46.84434874230381,-71.22276032615825
19376,Rue de Marly,Québec,Sainte-Foy–Sillery–Cap-Rouge,120690,46.751366204038455,-71.33252628284535
9914,Rue Delage,Québec,La Haute-Saint-Charles,118940,46.90984314728446,-71.37253649713962
18978,Avenue De Rochebelle,Québec,Sainte-Foy–Sillery–Cap-Rouge,131188,46.76635523669089,-71.2984129968379
18979,Avenue De Rochebelle,Québec,Sainte-Foy–Sillery–Cap-Rouge,119649,46.76777778728958,-71.30046141258435
15494,Rue René-Vigneron,Québec,Beauport,126670,46.861850457060584,-71.22230445818793
10451,Rue La Valterie,Québec,Beauport,140966,46.87889280918248,-71.21479526724148
4787,Rue du Harfang,Québec,Beauport,138166,46.87583538780754,-71.22169342478105
18139,Avenue De Rochebelle,Québec,Sainte-Foy–Sillery–Cap-Rouge,119647,46.77148366764176,-71.30202000708059
6829,Rue de Bromont,Québec,Beauport,127841,46.877032631361466,-71.21567989094234
15102,Rue de la Paumelle,Québec,Beauport,144146,46.87822527147533,-71.21171463515137
9974,Rue Wilfrid-Auclair,Québec,La Haute-Saint-Charles,118480,46.91306229542071,-71.381916486754
12823,Boulevard La Morille,Québec,Les Rivières,103685,46.84207160903022,-71.30604821304532
549,Rue de la Belle-Arrivée,Québec,Les Rivières,100564,46.83503483400629,-71.32153572214578
19342,Autoroute Robert-Bourassa,Québec,Sainte-Foy–Sillery–Cap-Rouge,118533,46.77517493784205,-71.27715788676787
14397,Rue Wilfrid-Auclair,Québec,La Haute-Saint-Charles,118480,46.912544839156176,-71.38330384215564
10043,Avenue du Lac-Saint-Charles,Québec,La Haute-Saint-Charles,131559,46.91582730820943,-71.38269497693766
11396,Rue Clemenceau,Québec,Beauport,201409,46.863550912220184,-71.21580127110222
10144,Rue de la Parmentière,Québec,Beauport,138209,46.87768428918198,-71.2137603830916
11822,Avenue Joseph-Casavant,Québec,Beauport,,46.871346874860365,-71.20713349304121
5941,Rue du Carrefour,Québec,Beauport,,46.86006228920456,-71.22000546849657
11791,Boulevard Albert-Chrétien,Québec,Beauport,,46.86638379894503,-71.2183666521655
34966,Rue Elzéar-Verreault,Québec,Beauport,200477,46.87356841912529,-71.21218270488139
14349,Rue Gaétan,Québec,La Haute-Saint-Charles,118523,46.91489053002809,-71.38475031900323
15584,Rue de la Girouille,Québec,Beauport,144166,46.87780557085047,-71.21239810615413
6878,Rue Montpellier,Québec,Beauport,140967,46.87889872895149,-71.2159396961106
6622,Rue Saint-Exupéry,Québec,Beauport,128621,46.882791557220855,-71.17187108528287
9977,Rue Gaétan,Québec,La Haute-Saint-Charles,118519,46.91529119201622,-71.38387049064428
10721,Rue Fernand-Dufour,Québec,Les Rivières,114002,46.82561472525634,-71.28438492669797
12762,Rue du Calcaire,Québec,Les Rivières,100993,46.85109353929487,-71.29818109598149
18976,Avenue De Rochebelle,Québec,Sainte-Foy–Sillery–Cap-Rouge,131186,46.76745285789732,-71.29998585678925
10049,Rue Rosario-J.-Rhéaume,Québec,La Haute-Saint-Charles,136786,46.914119204189156,-71.38352771779137
18142,Avenue De Rochebelle,Québec,Sainte-Foy–Sillery–Cap-Rouge,119649,46.770387675821674,-71.30210412581691
18913,Route de l'Église,Québec,Sainte-Foy–Sillery–Cap-Rouge,,46.76954934367311,-71.29625074992053
11398,Avenue Saint-David,Québec,Beauport,126662,46.86431674959842,-71.21410514915137
6795,Avenue Saint-Grégoire,Québec,Beauport,127492,46.881536525089864,-71.15224131768719
14559,Rue des Belles-de-Nuit,Québec,La Haute-Saint-Charles,138086,46.87765890901521,-71.33828594229298
15579,Rue du Carrefour,Québec,Beauport,126656,46.862474172560965,-71.21423554984648
167520,Avenue Alphonse-Dupuis,Québec,Beauport,,46.86613566243311,-71.23173176093303
7467,Rue Clemenceau,Québec,Beauport,201401,46.86411153887324,-71.21501093314802
6525,Boulevard Adrien-Dufresne,Québec,Beauport,127643,46.8714953184936,-71.2204048499979
11787,Boulevard Albert-Chrétien,Québec,Beauport,,46.86439381960629,-71.21896449984482
18500,Avenue Roland-Beaudin,Québec,Sainte-Foy–Sillery–Cap-Rouge,,46.77129207284645,-71.29965143495278
42323,Rue de la Girouille,Québec,Beauport,200575,46.87651136235601,-71.20806564247268
11789,Boulevard Albert-Chrétien,Québec,Beauport,,46.86576238383435,-71.21977923621093
18499,Route de l'Église,Québec,Sainte-Foy–Sillery–Cap-Rouge,,46.77160772516218,-71.29647835675398
12707,Rue d'Hedleyville,Québec,La Cité-Limoilou,105146,46.82382598229196,-71.22018501538146
3999,Avenue Ruel,Québec,Beauport,127119,46.87495226217756,-71.16023083431075
167120,,Québec,Sainte-Foy–Sillery–Cap-Rouge,,46.79828122060947,-71.37400258631094
170137,Rue des Châtelets,Québec,Sainte-Foy–Sillery–Cap-Rouge,,46.76431140056992,-71.29659540444962
10387,Rue de la Rive-Boisée Nord,Québec,Les Rivières,140632,46.83699158502193,-71.32465422513813
9423,Rue Longchamps,Québec,La Haute-Saint-Charles,115838,46.879642313937104,-71.34279392540462
18376,Rue du Grand-Voyer,Québec,Sainte-Foy–Sillery–Cap-Rouge,119612,46.76632909924279,-71.30471483870265
1960,Rue La Durantaye,Québec,Les Rivières,106896,46.847766966368205,-71.30290298661546
4008,Avenue Ruel,Québec,Beauport,127105,46.87662542112555,-71.15844863187559
82328,Rue Jean-Bernard,Québec,Les Rivières,201943,46.84529230715518,-71.31276184091153
2079,Rue du Voisinage,Québec,Les Rivières,100683,46.853592238856244,-71.28954880651402
19257,Avenue du Brabant,Québec,Sainte-Foy–Sillery–Cap-Rouge,121352,46.77594685151899,-71.32900126464615
119767,Rue Louise-Fiset,Québec,Sainte-Foy–Sillery–Cap-Rouge,,46.77113396260674,-71.35482829501828
90003,Rue des Rocailles,Québec,Les Rivières,,46.83201746392091,-71.28510021821461
165401,,Québec,Les Rivières,,46.821709449126985,-71.34495552667835
166442,Avenue Saint-Michel,Québec,Beauport,,46.89569058091815,-71.19651811352621
163071,Rue Gide,Québec,Les Rivières,,46.815006128352024,-71.32566361965533
6363,Rue Glinel,Québec,Beauport,131599,46.89174654804774,-71.21969128248251
12701,Rue Bellerose,Québec,La Haute-Saint-Charles,100680,46.84748296469043,-71.38079926259363
1894,Rue Monseigneur-Cooke,Québec,La Haute-Saint-Charles,103452,46.84778775579053,-71.37228654386665
2913,Rue Soumande,Québec,Les Rivières,105394,46.82110844928475,-71.25460506661695
160083,4e Avenue Est,Québec,Charlesbourg,,46.854914322156986,-71.25411994157473
18775,Avenue Dalton,Québec,Sainte-Foy–Sillery–Cap-Rouge,120450,46.79107816350374,-71.30231881596741
10995,Avenue Chauveau,Québec,Les Rivières,101457,46.830883112240706,-71.35133675265192
170171,Avenue de Cornouailles,Québec,Charlesbourg,,46.865273476240866,-71.26231244598098
87763,Rue des Travois,Québec,Charlesbourg,,46.90449657500312,-71.31091448793157
162380,Rue de Sherwood,Québec,Charlesbourg,,46.905367323657416,-71.31992682135889
18772,Avenue Dalton,Québec,Sainte-Foy–Sillery–Cap-Rouge,120447,46.79164646751645,-71.30019235919735
19876,Avenue Dalton,Québec,Sainte-Foy–Sillery–Cap-Rouge,118900,46.792464446395904,-71.29469925064402
19874,Avenue Dalton,Québec,Sainte-Foy–Sillery–Cap-Rouge,118923,46.79278258106862,-71.29099389242242
7036,Rue George-Muir,Québec,Charlesbourg,123832,46.8936495776028,-71.32033389666118
10119,Rue Delage,Québec,La Haute-Saint-Charles,118935,46.91408365015651,-71.36351784749458
70806,3e Avenue Ouest,Québec,Charlesbourg,120551,46.851026400234595,-71.26233505160263
142490,Rue de La Salette,Québec,Charlesbourg,,46.858321360935086,-71.24462745191535
87766,Rue des Loups-Marins,Québec,Charlesbourg,,46.89312902467153,-71.28446914816031
87771,Rue des Lièvres,Québec,Charlesbourg,,46.89469618570687,-71.28834429549961
2943,Rue De La Colombière Ouest,Québec,La Cité-Limoilou,101623,46.83428587800759,-71.2591963631104
10041,Rue Delage,Québec,La Haute-Saint-Charles,118935,46.915383952102246,-71.36066987346452
53207,Rue des Feuillus,Québec,La Haute-Saint-Charles,200219,46.88227044489816,-71.33237131911723
163714,63e Rue Est,Québec,Charlesbourg,,46.85623072566479,-71.25019557719796
19644,Avenue du Ravin,Québec,Sainte-Foy–Sillery–Cap-Rouge,116624,46.79249494183578,-71.2385531150762
18701,Avenue Chapdelaine,Québec,Sainte-Foy–Sillery–Cap-Rouge,,46.788945000880915,-71.28029647742211
827,Rue Cécile-Vallerand,Québec,Les Rivières,101730,46.83809085904613,-71.3065997781977
60568,Rue des Chrysolithes,Québec,Charlesbourg,141186,46.884990703482075,-71.26063800706338
18122,Rue de la Crête,Québec,Sainte-Foy–Sillery–Cap-Rouge,117819,46.75470189918351,-71.27881452470272
170176,Avenue Sully,Québec,Charlesbourg,,46.86837641450188,-71.2534193769895
7655,Avenue Doucet,Québec,Charlesbourg,121663,46.8494792682826,-71.2734976317563
65363,Boulevard Henri-Bourassa,Québec,Charlesbourg,201835,46.8923011859046,-71.29696331603886
164606,Rue Saint-Luc,Québec,La Cité-Limoilou,,46.80600304007667,-71.23605135339058
81683,Côte de la Potasse,Québec,La Cité-Limoilou,104825,46.815607996055554,-71.21323394309408
1810,Boulevard Père-Lelièvre,Québec,Les Rivières,104100,46.81187480506467,-71.30310835300483
8817,Rue Marc-Chagall,Québec,La Haute-Saint-Charles,115862,46.8850682215533,-71.34005636514819
11005,Boulevard Wilfrid-Hamel,Québec,Les Rivières,113250,46.80546034275222,-71.32501834217825
11281,Rue Adéla-Lessard,Québec,Les Rivières,146986,46.83811378330371,-71.30857462712599
168441,Avenue Royale,Québec,Beauport,,46.85534745029916,-71.19846417657028
168795,Avenue Ruel,Québec,Beauport,,46.87082647191134,-71.16437546357317
164986,Rue de l'Amérique-Française,Québec,La Cité-Limoilou,,46.80699416223417,-71.21999658418618
74973,Rue de l'Avrillet,Québec,Beauport,128125,46.87613500755055,-71.20416490332636
169504,Avenue Blaise-Pascal,Québec,Sainte-Foy–Sillery–Cap-Rouge,,46.77969406121054,-71.34322763895703
166234,Rue Gaulin,Québec,Beauport,,46.8609034612512,-71.17888242336265
165600,Avenue Cardinal-Rouleau,Québec,La Cité-Limoilou,,46.79606320653405,-71.24270016439297
167739,Rue Pierre-Couture,Saint-Augustin-de-Desmaures,,,46.73503035871952,-71.44420199608545
168188,,Saint-Augustin-de-Desmaures,,,46.755090378033685,-71.4307189752199
18444,Rue de Montreux,Québec,Sainte-Foy–Sillery–Cap-Rouge,119021,46.755915704294544,-71.30356222850922
9912,Rue Delage,Québec,La Haute-Saint-Charles,118939,46.91198886951436,-71.36794669480551
170174,Avenue de la Rivière-Jaune,Québec,Charlesbourg,,46.916456729662166,-71.3457247905604
168804,Rue du Terroir,Québec,Beauport,,46.866529736129316,-71.20488853801504
163715,61e Rue Est,Québec,Charlesbourg,,46.85405271720029,-71.25235078568552
142494,9e Avenue Est,Québec,Charlesbourg,,46.859161586905444,-71.24928655972667
18437,Rue de Chambord,Québec,Sainte-Foy–Sillery–Cap-Rouge,119242,46.7574496233745,-71.3046534248362
18495,Rue Landry,Québec,Sainte-Foy–Sillery–Cap-Rouge,118358,46.77112881874991,-71.29257016211157
4076,Rue Einstein,Québec,Les Rivières,,46.796636562909164,-71.3161440580639
18120,Rue de la Promenade,Québec,Sainte-Foy–Sillery–Cap-Rouge,117849,46.75478236568809,-71.2764178765797
18087,Rue de Valcourt,Québec,Sainte-Foy–Sillery–Cap-Rouge,118003,46.76308262592627,-71.27760174827718
163716,61e Rue Est,Québec,Charlesbourg,,46.85445679142342,-71.25133260417013
88730,Rue Claire-Morin,Québec,Beauport,,46.87096056070065,-71.16776163537337
166112,Boulevard Wilfrid-Hamel,Québec,La Cité-Limoilou,,46.828497432248575,-71.24936658445601
138652,Avenue du Collège,Québec,Beauport,,46.861443425502884,-71.18134056979522
12092,Rue Larche,Québec,Les Rivières,200886,46.84443508520177,-71.29920429203409
8103,Avenue Joseph-Giffard,Québec,Beauport,128208,46.874335317826194,-71.2117531985564
19568,Boulevard Laurier,Québec,Sainte-Foy–Sillery–Cap-Rouge,132727,46.783075459184666,-71.25760811373372
166698,Rue de Sydney,Saint-Augustin-de-Desmaures,,,46.759224347807404,-71.43816944498055
10949,Boulevard de l'Ormière,Québec,La Haute-Saint-Charles,103870,46.84211244001606,-71.36427891060065
74005,Rue Dickson,Québec,Sainte-Foy–Sillery–Cap-Rouge,116285,46.78198480770349,-71.25818309509104
170209,Rue Petitclerc,Québec,Beauport,,46.85988014916796,-71.21237823470693
8900,Boulevard des Étudiants,Québec,La Haute-Saint-Charles,,46.85098980238662,-71.37017015888736
10694,Avenue de la Montagne Est,Québec,La Haute-Saint-Charles,,46.842503620901184,-71.42933583043751
1294,Rue Saint-Olivier,L'Ancienne-Lorette,,137352,46.8166920905386,-71.35644045848753
11266,Rue Cézanne,Québec,La Haute-Saint-Charles,,46.86079016412431,-71.33620635455377
163449,Chemin des Quatre-Bourgeois,Québec,Sainte-Foy–Sillery–Cap-Rouge,,46.78568731914787,-71.28156654594493
1284,Rue Damiron,L'Ancienne-Lorette,,117594,46.81742056063683,-71.35572195690011
1293,Rue Damiron,L'Ancienne-Lorette,,117594,46.81647044580115,-71.35325697944165
15101,Rue de la Girouille,Québec,Beauport,144148,46.879691550149055,-71.21089392740535
8034,Rue Arel,Québec,Beauport,127752,46.89261712835407,-71.1995178499884
2603,Rue Lavigueur,Québec,La Cité-Limoilou,103108,46.81086617223391,-71.22427342561029
154963,Rue Josée,Québec,Charlesbourg,,46.93842801534671,-71.3196881910156
163258,1re Avenue,Québec,Charlesbourg,,46.85683676702527,-71.26418294438672
170172,Carré du Limousin,Québec,Charlesbourg,,46.8688905122372,-71.28434954010753
63140,Rue des Cyprès,Québec,Charlesbourg,201650,46.88555847517676,-71.27209683877743
4425,Rue de la Rive-Boisée Sud,Québec,Les Rivières,106172,46.828775722991466,-71.31544435735027
170177,Avenue d'Aunis,Québec,Charlesbourg,,46.878413800031225,-71.26841887596632
142485,82e Rue Ouest,Québec,Charlesbourg,,46.85811509701279,-71.27732609546125
834,Boulevard Wilfrid-Hamel,Québec,Les Rivières,106019,46.8062454867705,-71.30584440415277
157523,Avenue Villeneuve,Québec,Charlesbourg,,46.86699375586337,-71.27169898625817
162374,Rue du Daim,Québec,Charlesbourg,,46.884841652541695,-71.30205608108977
63448,Rue Françoise-Encelin,Québec,Charlesbourg,141026,46.8908079085662,-71.31171568406688
15054,Rue de Carillon,Québec,La Cité-Limoilou,101176,46.81480495910566,-71.21225885655669
6346,Rue des Chaînons,Québec,Beauport,128735,46.88169836026476,-71.1893421453383
162379,Rue du Platine,Québec,Charlesbourg,,46.891003066517655,-71.31650284225199
142484,82e Rue Ouest,Québec,Charlesbourg,,46.85746931175587,-71.2782958418434
14396,Rue Beaurivage,Québec,La Haute-Saint-Charles,118624,46.904697247509745,-71.35758511223544
142163,Rue Phydime-Deschênes,Québec,Charlesbourg,,46.890942411822785,-71.30745178905005
3905,Boulevard Wilfrid-Hamel,Québec,Sainte-Foy–Sillery–Cap-Rouge,200168,46.7705969982439,-71.3845366034434
7484,Rue du Harfang,Québec,Beauport,138186,46.874041916993946,-71.21862373505036
87444,7e Avenue Est,Québec,Charlesbourg,,46.85632775823613,-71.24929623925598
7595,Avenue de Montmirail,Québec,Beauport,126714,46.85621009718349,-71.22349559688995
11811,Rue de la Paumelle,Québec,Beauport,144126,46.87833790673496,-71.21031524103438
6579,Rue Clemenceau,Québec,Beauport,126677,46.86102513981437,-71.22223366059784
18318,Rue du Campanile,Québec,Sainte-Foy–Sillery–Cap-Rouge,120867,46.76205723317738,-71.33258489623574
57049,Rue François-Tavenas,Québec,Sainte-Foy–Sillery–Cap-Rouge,200167,46.762714055319236,-71.34217775104804
166745,20e Avenue,Saint-Augustin-de-Desmaures,,,46.7466469653569,-71.39845347471265
147283,Chemin de la Plage-Jacques-Cartier,Québec,Sainte-Foy–Sillery–Cap-Rouge,,46.746952711137936,-71.34066052611513
3557,Chemin de la Canardière,Québec,La Cité-Limoilou,112295,46.84668918239583,-71.21561218662134
169251,Rue Saint-Jean,Québec,La Cité-Limoilou,,46.80686268636995,-71.22699505094127
402,Rue Saint-Jean-Baptiste,L'Ancienne-Lorette,,117412,46.810666191884565,-71.34543254913712
13069,Avenue Chauveau,Québec,La Haute-Saint-Charles,,46.835568401534175,-71.34843789301999
11513,Route Sainte-Geneviève,Québec,La Haute-Saint-Charles,,46.842424146716795,-71.38956612471705
10704,Avenue Galibois,Québec,Les Rivières,,46.831894961478795,-71.269748924162
169380,Rue de la Pommeraie,Québec,Sainte-Foy–Sillery–Cap-Rouge,,46.75885091569997,-71.3349540181335
167785,Terrasse Saint-Félix,Saint-Augustin-de-Desmaures,,,46.73569252883799,-71.4019495736696
1340,Rue Chapman,L'Ancienne-Lorette,,117643,46.814899491243835,-71.34763681616357
1341,Rue Saint-Olivier,L'Ancienne-Lorette,,116688,46.80996569815814,-71.35062018461983
2322,6e Avenue,Québec,La Cité-Limoilou,104610,46.82322594779974,-71.2225221471707
1300,Rue Saint-Olivier,L'Ancienne-Lorette,,117622,46.815551831009174,-71.35656183911014
1303,Rue de la Cimaise,L'Ancienne-Lorette,,117564,46.81541081752588,-71.35549902253706
13952,Rue Montoisy,Québec,Beauport,127514,46.88638510145813,-71.21457072092778
7102,Rue des Cannas,Québec,Charlesbourg,138709,46.892423497777045,-71.28139937620705
18147,Avenue des Compagnons,Québec,Sainte-Foy–Sillery–Cap-Rouge,120962,46.758615625374915,-71.33253130316615
60571,Rue de l'Ardoise,Québec,Charlesbourg,201789,46.88423400029526,-71.25623691691509
19191,Chemin des Quatre-Bourgeois,Québec,Sainte-Foy–Sillery–Cap-Rouge,118820,46.778779290509505,-71.2925288210353
18939,Boulevard Laurier,Québec,Sainte-Foy–Sillery–Cap-Rouge,130502,46.76692587731781,-71.2894192059908
144084,Rue Astrid,Québec,Charlesbourg,,46.88250055876503,-71.24308779666714
47455,Rue de Boston,Québec,Les Rivières,201712,46.83645020244162,-71.33369715169724
13930,Boulevard Raymond,Québec,Beauport,,46.88327677386084,-71.18220811988309
43926,Rue Cézanne,Québec,La Haute-Saint-Charles,,46.86119720746593,-71.33577348297878
65364,Rue des Santolines,Québec,Charlesbourg,200920,46.892521478276244,-71.29603364341797
6490,Rue Dubeau,Québec,Beauport,127004,46.893453702490696,-71.2196307869362
163710,Avenue Honoré,Québec,Charlesbourg,,46.85752615543741,-71.27199763934938
2801,Avenue Chauveau,Québec,La Haute-Saint-Charles,,46.835218481113515,-71.34654694438372
15108,Autoroute Duplessis,Québec,Sainte-Foy–Sillery–Cap-Rouge,,46.78478428170746,-71.35144270744738
60569,Avenue des Diamants,Québec,Charlesbourg,201792,46.884431217905735,-71.25826585795991
162354,Rue James-Carmichael,Québec,Charlesbourg,,46.894117422096784,-71.29717292556155
62163,Rue des Autochtones,Québec,Charlesbourg,201657,46.899367205219455,-71.29225410053998
102483,Rue de l'Université,Québec,Sainte-Foy–Sillery–Cap-Rouge,,46.78372135167354,-71.26492222397815
10350,Rue La Mariouche,Québec,Beauport,128005,46.89412350518417,-71.19145575672913
162937,Rue Gaudias-Villeneuve,Québec,Charlesbourg,,46.9060557055386,-71.35007825126375
170178,Rue de la Moselle,Québec,Charlesbourg,,46.877715357052274,-71.26753065913414
161363,70e Rue Est,Québec,Charlesbourg,,46.856910063165934,-71.26238208736949
163853,Rue Soumande,Québec,La Cité-Limoilou,,46.82971256785111,-71.25031224113462
5680,Rue Fichet,Québec,Beauport,128193,46.87896133232007,-71.19514326484082
10293,Route de l'Aéroport,Québec,La Haute-Saint-Charles,,46.84132812249497,-71.43286296651146
163833,Avenue de Brunoy,Québec,Charlesbourg,,46.86164533380156,-71.24825734777616
15263,Boulevard des Étudiants,Québec,La Haute-Saint-Charles,,46.855261834872955,-71.36550189736556
12965,Rue de Port-Louis,Québec,Les Rivières,,46.816587796523294,-71.2832036682386
62165,Rue des Autochtones,Québec,Charlesbourg,201933,46.899883481432866,-71.29607604547589
163801,Rue Saint-Réal,Québec,La Cité-Limoilou,,46.812279043888736,-71.22167446848302
168481,Rue des Trois-Soeurs,Wendake,,,46.86713760798186,-71.3555025112195
163708,Avenue Honoré,Québec,Charlesbourg,,46.85719013467453,-71.27384531316183
19227,Route de l'Église,Québec,Sainte-Foy–Sillery–Cap-Rouge,119672,46.773344382431986,-71.29750002386935
107924,Rue des Autochtones,Québec,Charlesbourg,,46.90006217863413,-71.29084150459595
57,Avenue Chauveau,Québec,La Haute-Saint-Charles,,46.83560903668836,-71.34430648423418
15187,Avenue Chauveau,Québec,La Haute-Saint-Charles,,46.83663077505912,-71.34429414545517
62166,Rue des Jeannois,Québec,Charlesbourg,201661,46.89877810854335,-71.29660111009548
142493,9e Avenue Est,Québec,Charlesbourg,,46.85978095561935,-71.24982128446888
15575,Rue Pincourt,Québec,La Haute-Saint-Charles,,46.8363438003783,-71.34949184226153
6612,Côte Saint-Grégoire,Québec,Beauport,127418,46.879946042087305,-71.15891319615214
2937,Boulevard des Gradins,Québec,Les Rivières,102456,46.83709855265307,-71.27201479862664
9140,Boulevard des Étudiants,Québec,La Haute-Saint-Charles,,46.85456649092736,-71.36720363290308
142486,50e Rue Ouest,Québec,Charlesbourg,,46.846374521723305,-71.25433827508729
12402,Rue Saint-Roch,Québec,La Cité-Limoilou,105450,46.81739455164686,-71.21762843898831
4168,Rue Gabrielle-D'Anneville,Québec,Beauport,128048,46.885747200639244,-71.18669620381246
1570,Rue Pincourt,Québec,La Haute-Saint-Charles,,46.838591554282345,-71.34646959436661
170175,Avenue Sully,Québec,Charlesbourg,,46.869106268319264,-71.25385932254257
11981,Boulevard Raymond,Québec,Beauport,,46.8840451694362,-71.18237640483827
166432,Rue de Montmartre,Québec,La Cité-Limoilou,,46.80955793080641,-71.2475723115367
11512,Rue Blain,Québec,La Haute-Saint-Charles,,46.83498489966237,-71.35774597799639
14192,Boulevard Raymond,Québec,Beauport,,46.88213113579816,-71.18229658995456
163856,Avenue du Béarn,Québec,Charlesbourg,,46.870297760866244,-71.27916094111276
164381,8e Rue,Québec,La Cité-Limoilou,,46.826702610176426,-71.2254122094552
167588,Rue Racine,Québec,La Haute-Saint-Charles,,46.84612445374205,-71.36735987782039
62181,Rue des Samares,Québec,Charlesbourg,201367,46.88447737229018,-71.27053733820264
2805,Avenue Chauveau,Québec,La Haute-Saint-Charles,,46.836141669176996,-71.34686354055971
55,Rue Pincourt,Québec,La Haute-Saint-Charles,,46.836962566186166,-71.34853687123871
163854,Rue Soumande,Québec,La Cité-Limoilou,,46.82893077046245,-71.25116888566863
168442,Avenue Royale,Québec,Beauport,,46.855976949567875,-71.19738284847374
166368,Grande Allée Ouest,Québec,La Cité-Limoilou,,46.80176137918689,-71.2242647613245
120106,,Saint-Gabriel-de-Valcartier,,,46.94461357992931,-71.46969078755365
107926,Rue des Autochtones,Québec,Charlesbourg,,46.90061302214405,-71.2891452603245
6536,Avenue Joseph-Giffard,Québec,Beauport,202100,46.87471074026298,-71.20513667393726
19370,Rue de Marly,Québec,Sainte-Foy–Sillery–Cap-Rouge,120692,46.752064413443364,-71.33059131554457
44253,Rue des Bienfaits,Québec,Les Rivières,200140,46.84097635420858,-71.3245150480829
9391,Rue de Villemoisson,Québec,La Haute-Saint-Charles,115547,46.867915953379665,-71.33987241422327
22805,Avenue des Sciences-de-la-Vie,Québec,Sainte-Foy–Sillery–Cap-Rouge,200539,46.77883659714611,-71.27921149680803
11313,Avenue Lapierre,Québec,La Haute-Saint-Charles,,46.862580268637736,-71.33410237772834
102485,Rue des Sports,Québec,Sainte-Foy–Sillery–Cap-Rouge,,46.78488137235,-71.2794749957709
6356,Côte Saint-Grégoire,Québec,Beauport,127415,46.88122647750639,-71.15921123968768
166699,Rue de Sydney,Saint-Augustin-de-Desmaures,,,46.75954260051261,-71.43925167734996
164700,Rue Gérin-Lajoie,Québec,La Cité-Limoilou,,46.84260032709009,-71.22270482007464
148246,Rue des Wapitis,Québec,Charlesbourg,,46.88412508844156,-71.29370064650486
163719,Rue de Verneuil,Québec,Charlesbourg,,46.862308228624904,-71.25012117783358
46805,Rue Bourdages,Québec,Les Rivières,,46.81532476273085,-71.25050861826229
14785,Avenue Chauveau,Québec,La Haute-Saint-Charles,,46.83698220156411,-71.34587074060599
165917,Rue De La Martinière,Québec,La Cité-Limoilou,,46.826210270163386,-71.24354408172493
67608,Boulevard Lebourgneuf,Québec,Les Rivières,202618,46.829915029821954,-71.3081847910163
18700,Avenue Chapdelaine,Québec,Sainte-Foy–Sillery–Cap-Rouge,,46.78836303482333,-71.27937662527592
167781,Rue Saint-Félix,Saint-Augustin-de-Desmaures,,,46.736278749563084,-71.38371782790162
168382,,Québec,Les Rivières,,46.84921518367505,-71.3251328383608
3499,Rue du Gabarit,Québec,Les Rivières,102288,46.844440618658375,-71.28450436250472
167127,,Québec,Sainte-Foy–Sillery–Cap-Rouge,,46.79582913702857,-71.36780682889675
24,Rue de la Rive-Boisée Sud,Québec,Les Rivières,113369,46.82935720149878,-71.31599517797359
12714,Boulevard Lebourgneuf,Québec,Les Rivières,106226,46.83718260512009,-71.2898656210497
12773,Rue Monfet,Québec,Les Rivières,103611,46.84131701188848,-71.29914694620082
56723,Rue Émile-Fleury,Québec,Les Rivières,102187,46.84784340002707,-71.29614894565485
56,Avenue Chauveau,Québec,La Haute-Saint-Charles,,46.83605417220878,-71.34555152399226
10693,Rue Chartier,Québec,La Haute-Saint-Charles,124707,46.84249028101497,-71.43051599719101
2697,Rue Blain,Québec,La Haute-Saint-Charles,,46.83770382397086,-71.35360623523466
11508,Rue Blain,Québec,La Haute-Saint-Charles,,46.83445531294352,-71.35602107456445
166668,"Bretelle Chemin du Lac, Sortie 300",Saint-Augustin-de-Desmaures,,,46.750026961495344,-71.39990286904168
165125,Rue Pierre-Couture,Saint-Augustin-de-Desmaures,,,46.73575942900237,-71.44525700234142
82004,Rue Métivier,Québec,Les Rivières,,46.82399514648025,-71.27816757805628
167126,,Québec,Sainte-Foy–Sillery–Cap-Rouge,,46.79646138059011,-71.36873768431936
70167,Route de l'Église,Québec,Sainte-Foy–Sillery–Cap-Rouge,119673,46.774642125537355,-71.29968631984246
5890,Rue des Pionnières-de-Beauport,Québec,Beauport,202017,46.86622556322909,-71.16826203332415
162938,Rue de la Belle-Dame,Québec,Charlesbourg,,46.905635730957364,-71.34887942153114
3780,Rue De Callières,Québec,La Cité-Limoilou,100998,46.79230153818287,-71.25105811271595
8218,Avenue de la Rivière-Jaune,Québec,Charlesbourg,125318,46.93034009320883,-71.34777663618172
10456,Rue Montpas,Québec,Charlesbourg,125374,46.93026757223545,-71.31822058584268
19648,Rue du Parc-Gomin,Québec,Sainte-Foy–Sillery–Cap-Rouge,116383,46.782845161740234,-71.26217382358344
14279,Rue Brunelle,Québec,Charlesbourg,122951,46.86707633486329,-71.25045072199975
162355,Rue Jacques-Bédard,Québec,Charlesbourg,,46.91009580119701,-71.3499786523414
154964,Rue Josée,Québec,Charlesbourg,,46.93840979541385,-71.3190449648134
6477,Rue Michel-Huppé,Québec,Beauport,126941,46.89718845312258,-71.22584058850924
163711,Avenue Guilbault,Québec,Charlesbourg,,46.85695283226714,-71.27287282402457
7639,Avenue Rabelais,Québec,Charlesbourg,122959,46.86716177870395,-71.25176603338682
87764,Rue des Marsouins,Québec,Charlesbourg,,46.89364663573118,-71.28291890581478
12356,Rue du Grand-Jardin,Québec,Les Rivières,102374,46.848246887773,-71.27916102954559
87132,52e Rue Ouest,Québec,Charlesbourg,,46.845782396646094,-71.25910015256518
18819,Rue De Longpré,Québec,Sainte-Foy–Sillery–Cap-Rouge,117771,46.79201002591081,-71.27003701191528
69207,Rue Jules-Laperrière,Québec,Charlesbourg,202237,46.90184101848423,-71.30081088598459
2123,Rue du Massif,Québec,Les Rivières,103360,46.83777792662637,-71.29198320229784
87770,Rue des Lièvres,Québec,Charlesbourg,,46.895669414562406,-71.28760936123363
15083,Rue de la Faune,Québec,La Haute-Saint-Charles,115708,46.87684668959029,-71.32449919989828
8762,Rue Phydime-Deschênes,Québec,Charlesbourg,124014,46.89287361227824,-71.30232198235451
144083,Rue Astrid,Québec,Charlesbourg,,46.88300303998372,-71.2432646862113
19551,Avenue des Gouverneurs,Québec,Sainte-Foy–Sillery–Cap-Rouge,116165,46.7750445917319,-71.26031673332616
163857,Avenue Alexis-Bourbeau,Québec,Charlesbourg,,46.86987324731321,-71.27947075244522
12163,Rue du Zénith,Québec,La Haute-Saint-Charles,144326,46.881212668501874,-71.32859891305375
1976,Boulevard La Morille,Québec,Les Rivières,103681,46.84629125266023,-71.29760733190548
163707,Avenue du Plateau-de-Charlesbourg,Québec,Charlesbourg,,46.86533903198443,-71.27494388254144
156243,5e Avenue Ouest,Québec,Charlesbourg,,46.84280108197075,-71.26415802569062
8860,Avenue Lapierre,Québec,La Haute-Saint-Charles,115842,46.87161182358536,-71.33825640934896
13317,Boulevard Wilfrid-Hamel,Québec,Les Rivières,106593,46.82080928752646,-71.24865131445387
14722,Rue de la Seigneurie,Québec,Charlesbourg,124740,46.88867651511495,-71.26961920117238
13582,Avenue de la Rivière-Jaune,Québec,Charlesbourg,125291,46.92425741504586,-71.3460100389982
7013,Rue Léo-Savard,Québec,Charlesbourg,124009,46.894495604054995,-71.30208364610121
8356,Avenue du Château-de-Chambord,Québec,Charlesbourg,122963,46.8666480971216,-71.25297606607926
7204,Rue Évangéline,Québec,Beauport,126880,46.85054191907694,-71.22519691231727
78165,Boulevard Lebourgneuf,Québec,Les Rivières,103138,46.83993835807505,-71.28306081970565
119766,Rue Louise-Fiset,Québec,Sainte-Foy–Sillery–Cap-Rouge,,46.770220504012265,-71.3557853070508
163393,Rue du Cuir,Québec,La Haute-Saint-Charles,,46.8784244381052,-71.34625325040794
7569,Avenue Royale,Québec,Beauport,129118,46.867227526230096,-71.18231347401304
1583,Rue de Brasilia,Québec,Les Rivières,140728,46.83852721535381,-71.32930328753842
10834,Boulevard Père-Lelièvre,Québec,Les Rivières,113948,46.81117115803835,-71.26700345014139
170182,Rue Léa-Roback,Québec,Beauport,,46.85906862906457,-71.21303953392314
20888,Avenue Chauveau,Québec,Les Rivières,147348,46.84121334231973,-71.33003582331544
7014,Rue de la Coudée,Québec,Charlesbourg,125137,46.90464177743904,-71.31190412769234
11558,Rue des Arbrisseaux,Québec,Les Rivières,148067,46.829470512001585,-71.31815506576626
18438,Boulevard Neilson,Québec,Sainte-Foy–Sillery–Cap-Rouge,119280,46.75866317711663,-71.30726474703945
7044,Côte Bédard,Québec,Charlesbourg,125171,46.91279833683549,-71.31563449640733
5935,Boulevard des Chutes,Québec,Beauport,126185,46.854355681257864,-71.19636813359415
14548,Avenue de la Rivière-Jaune,Québec,Charlesbourg,,46.942222035531955,-71.3515403785769
3985,Côte Saint-Grégoire,Québec,Beauport,127423,46.87848401667892,-71.15482630386718
8289,Rue d'Aubigny,Québec,Charlesbourg,120954,46.86383101113675,-71.24742133293539
26323,Rue de la Constellation,Québec,Charlesbourg,200903,46.894927109474004,-71.29265418145089
8215,Avenue de la Rivière-Jaune,Québec,Charlesbourg,125461,46.93805084086153,-71.34910165085913
19391,Rue Bourbonnière,Québec,Sainte-Foy–Sillery–Cap-Rouge,116361,46.78180897985082,-71.26197342788248
4723,Rue Alfred,Québec,Beauport,125921,46.917187065832586,-71.20146057786859
20890,Rue de Bilbao,Québec,Les Rivières,200604,46.840032150417166,-71.33096998038559
18042,Chemin Sainte-Foy,Québec,Sainte-Foy–Sillery–Cap-Rouge,130586,46.786610548164596,-71.27920760382533
2504,Rue de l'Aster,Québec,Les Rivières,100257,46.8277051724682,-71.31705246451821
19373,Rue de Marly,Québec,Sainte-Foy–Sillery–Cap-Rouge,120689,46.7533149194646,-71.33326930349116
165343,Rue de la Fêve,Wendake,,,46.867524462923676,-71.35713483193835
7285,Rue du Forgeron,Saint-Augustin-de-Desmaures,,128366,46.73627587575399,-71.45286207832785
14225,Rue des Bosquets,Québec,La Haute-Saint-Charles,118412,46.88951259820449,-71.3847068467506
11501,Boulevard Saint-Claude,Québec,La Haute-Saint-Charles,104966,46.845488979215475,-71.37978187479784
10481,Rue du Piémont,Québec,La Haute-Saint-Charles,119108,46.90104589984836,-71.35835684320733
169378,Boulevard Wilfrid-Hamel,Québec,Les Rivières,201546,46.8127186080898,-71.25405286331751
7385,Rue des Landes,Saint-Augustin-de-Desmaures,,129520,46.740314370806345,-71.38289757359311
337,Rue Notre-Dame,L'Ancienne-Lorette,,117094,46.8035057140698,-71.36178332643027
14407,Rue Manick,Québec,La Haute-Saint-Charles,118350,46.89180796465788,-71.37660480016451
12509,Rue Guillaume-Boisset,Québec,Sainte-Foy–Sillery–Cap-Rouge,114753,46.76520620713235,-71.3586706312351
165258,Boulevard Pie-XI Sud,Québec,La Haute-Saint-Charles,,46.84584885816641,-71.39920417378333
7158,Rue Saint-Victorien,Québec,Beauport,126337,46.851548821978476,-71.20449998651219
1286,Rue du Fleuret,L'Ancienne-Lorette,,137347,46.81722264386455,-71.3531714561526
12659,Boulevard Valcartier,Québec,La Haute-Saint-Charles,,46.90445246185957,-71.4278249889797
2795,Boulevard de l'Ormière,Québec,La Haute-Saint-Charles,103865,46.83525152149681,-71.35531571847025
53537,Rue de l'Échiquier,Québec,La Haute-Saint-Charles,201763,46.846511897789064,-71.43233911550615
1327,Rue Choquette,L'Ancienne-Lorette,,117608,46.811573901197605,-71.3500459198812
8854,Rue Dubois,Québec,La Haute-Saint-Charles,115758,46.876401978784806,-71.33416544271819
1589,Rue de Bogota,Québec,Les Rivières,140708,46.838133209697006,-71.32840760222443
48404,Rue de Boston,Québec,Les Rivières,201707,46.83648527230692,-71.3352516747905
3983,Boulevard des Chutes,Québec,Beauport,129311,46.88598478870627,-71.15261760835521
9832,Rue du Geyser,Québec,La Haute-Saint-Charles,138006,46.864158294042475,-71.44329060579182
5900,Avenue de l'Abbé-Giguère,Québec,Beauport,126768,46.85286578658278,-71.23269054701436
10705,Rue Métivier,Québec,Les Rivières,201498,46.82572197080928,-71.27771316050175
19341,Boulevard Hochelaga,Québec,Sainte-Foy–Sillery–Cap-Rouge,118435,46.775060406019,-71.27982379463768
11068,Rue Jean-Perrin,Québec,Les Rivières,102668,46.82073836008674,-71.31441956978195
9657,Rue de l'Alouette,Québec,La Haute-Saint-Charles,135469,46.83450771716256,-71.40383655822517
6540,Boulevard Sainte-Anne,Québec,Beauport,126123,46.860034313354014,-71.1715441864613
14381,Rue des Plaines-Rouges,Québec,La Haute-Saint-Charles,118153,46.88713913724825,-71.37959841734258
15318,Rue Fréchette,Québec,La Haute-Saint-Charles,115813,46.87260934076097,-71.34162616276994
19139,Boulevard Hochelaga,Québec,Sainte-Foy–Sillery–Cap-Rouge,118435,46.77405740578273,-71.28169132197753
19021,Boulevard Hochelaga,Québec,Sainte-Foy–Sillery–Cap-Rouge,130497,46.77305181703596,-71.28375764442397
15194,Rue du Blizzard,Québec,Les Rivières,111752,46.83313696608093,-71.29680890340086
1388,Rue de la Griotte,Québec,Les Rivières,102485,46.84264127868065,-71.28449972301117
13403,Rue Bernier Ouest,Québec,Charlesbourg,126641,46.90386520846602,-71.3154205230846
13277,Avenue Notre-Dame,Québec,Sainte-Foy–Sillery–Cap-Rouge,123332,46.799299744139816,-71.41036644861308
15070,Rue des Oliviers,Québec,La Haute-Saint-Charles,145989,46.887523411996725,-71.38319507931107
6979,Rue de Fribourg,Québec,Charlesbourg,125389,46.93579007679732,-71.32152227120734
159123,Avenue du Mont-Clair,Québec,Charlesbourg,,46.850909041868135,-71.27382786111761
8295,Rue de Sologne,Québec,Charlesbourg,120956,46.86465438768632,-71.24741908079815
163706,Avenue du Plateau-de-Charlesbourg,Québec,Charlesbourg,,46.86384488484226,-71.27501041708807
162356,Rue Jacques-Bédard,Québec,Charlesbourg,,46.90958785291705,-71.35105826371299
109203,52e Rue Ouest,Québec,Charlesbourg,,46.842798966826365,-71.26843526245935
1086,Rue Jeanne-d'Arc,Québec,La Cité-Limoilou,102712,46.80392126637286,-71.23673620342053
142165,Rue Phydime-Deschênes,Québec,Charlesbourg,,46.88973579354092,-71.3103620348617
87768,Rue des Marsouins,Québec,Charlesbourg,,46.89460313600618,-71.28531706691581
87765,Rue des Marsouins,Québec,Charlesbourg,,46.89401401929944,-71.28384653526656
779,Avenue D'Assise,Québec,La Cité-Limoilou,100250,46.82710980091731,-71.23834807947604
19013,Rue Bernardin-Morin,Québec,Sainte-Foy–Sillery–Cap-Rouge,118315,46.77225968699456,-71.28125107889343
18715,Rue Jean-Durand,Québec,Sainte-Foy–Sillery–Cap-Rouge,118719,46.78956016893378,-71.28443522236833
765,Avenue Marivaux,Québec,Les Rivières,103330,46.81477675532537,-71.32100393632751
14066,Rue de l'Avenir,Québec,Beauport,128926,46.86574823999307,-71.18791921838556
19924,Avenue de l'Assomption,Québec,Sainte-Foy–Sillery–Cap-Rouge,,46.78016618460661,-71.24528224572207
14783,Avenue D'Assise,Québec,La Cité-Limoilou,100250,46.82772636423879,-71.2388993310412
18482,Boulevard Hochelaga,Québec,Sainte-Foy–Sillery–Cap-Rouge,130471,46.77153700839808,-71.28755802266699
19026,Boulevard Hochelaga,Québec,Sainte-Foy–Sillery–Cap-Rouge,118417,46.77283662178575,-71.28510816166171
166235,Avenue du Lac-Saint-Charles,Québec,La Haute-Saint-Charles,,46.89415083620695,-71.36289086511282
5058,Avenue Notre-Dame,Québec,Sainte-Foy–Sillery–Cap-Rouge,123208,46.8124692659463,-71.38746566393233
6388,Avenue Saint-Édouard,Québec,Beauport,126397,46.85208995813126,-71.21305783916785
170233,Rue Jean-Paul-Lemieux,Québec,Charlesbourg,,46.86526815353472,-71.2804570681398
15218,Boulevard des Capucins,Québec,La Cité-Limoilou,101115,46.82573291905957,-71.22142926728804
14466,Rue Giraudoux,Québec,Sainte-Foy–Sillery–Cap-Rouge,122768,46.81825353571604,-71.36352129708756
4423,Rue Martineau,Québec,La Haute-Saint-Charles,136986,46.88509359717207,-71.40227599344315
170234,Rue Jean-Paul-Lemieux,Québec,Charlesbourg,,46.866073327097844,-71.27932515821034
1389,Rue du Griffon,Québec,Les Rivières,112271,46.842615218325726,-71.28520527411514
19397,Rue des Hospitalières,Québec,Sainte-Foy–Sillery–Cap-Rouge,116056,46.76799930033549,-71.26739311634691
5177,Boulevard Wilfrid-Hamel,Québec,Les Rivières,106034,46.80256953743995,-71.33253462333553
8371,Rue des Îlots,Québec,Sainte-Foy–Sillery–Cap-Rouge,114556,46.75120091205844,-71.3372773110047
1254,3e Avenue,Québec,La Cité-Limoilou,100396,46.83066699367851,-71.23355085084712
13309,18e Rue,Québec,La Cité-Limoilou,104686,46.836201120885484,-71.22546002051523
162357,Rue Jacques-Bédard,Québec,Charlesbourg,,46.91054392073952,-71.35117255870186
2821,18e Rue,Québec,La Cité-Limoilou,104680,46.83269496361524,-71.23233593461396
169473,,L'Ancienne-Lorette,,,46.79849890815028,-71.34196543572082
11117,Rue de l'Exposition,Québec,La Cité-Limoilou,202086,46.82632135471073,-71.25037389327301
12624,Boulevard Henri-Bourassa,Québec,La Cité-Limoilou,102554,46.835776121814575,-71.22618310875004
1255,3e Avenue,Québec,La Cité-Limoilou,100395,46.82983626256862,-71.23277785349975
143446,Rue Marie-Anne-Gaudreau,Québec,Les Rivières,,46.839903227955915,-71.31218926489929
87773,Rue des Mouflons,Québec,Charlesbourg,,46.894102035049656,-71.28592514598802
806,18e Rue,Québec,La Cité-Limoilou,104676,46.83031890508538,-71.23704775998513
1005,Boulevard Champlain,Québec,La Cité-Limoilou,,46.79806132610053,-71.2153981818696
164614,3e Avenue Est,Québec,Charlesbourg,,46.86550911514171,-71.26652123805317
87772,Rue des Lièvres,Québec,Charlesbourg,,46.893616609342374,-71.28876541058877
18378,Rue Louis-Riel,Québec,Sainte-Foy–Sillery–Cap-Rouge,119595,46.76707589590966,-71.30463702122714
2246,Avenue du Colisée,Québec,La Cité-Limoilou,101586,46.8328548823985,-71.24596914414563
167742,Rue Moisan,Saint-Augustin-de-Desmaures,,,46.72272503672694,-71.49512714555505
169024,Rue Saint-Ambroise,Québec,La Cité-Limoilou,,46.81444486125482,-71.23824109672945
3723,1re Avenue,Québec,La Cité-Limoilou,112989,46.82443616114333,-71.23234846450333
19275,Avenue Dalton,Québec,Sainte-Foy–Sillery–Cap-Rouge,120447,46.792410095628405,-71.29649502085842
302,Rue Beauséjour,L'Ancienne-Lorette,,117461,46.81143091175145,-71.3667728006666
35615,,Québec,La Cité-Limoilou,,46.826758522745074,-71.21689502520503
19629,Chemin Saint-Louis,Québec,Sainte-Foy–Sillery–Cap-Rouge,116416,46.78595307003536,-71.24688887404056
9276,Rue Saint-Félix,Québec,Sainte-Foy–Sillery–Cap-Rouge,114490,46.737675219436206,-71.36447021924576
854,3e Avenue,Québec,La Cité-Limoilou,100391,46.8272943571217,-71.23043805474441
1256,3e Avenue,Québec,La Cité-Limoilou,100388,46.82527482739704,-71.22885096136024
11378,Rue de l'Élégance,Québec,La Haute-Saint-Charles,200946,46.89523393011596,-71.37318016203763
13350,3e Avenue,Québec,La Cité-Limoilou,100386,46.82434272829624,-71.2277469948358
19514,Avenue Joseph-Vézina,Québec,Sainte-Foy–Sillery–Cap-Rouge,116157,46.77468533042378,-71.26827051431087
6344,Rue de la Dentellière,Saint-Augustin-de-Desmaures,,128986,46.74008526573015,-71.4629923384494
5557,Rue de l'Avoine,Saint-Augustin-de-Desmaures,,128337,46.73546204494942,-71.4616101585314
5411,Rue Delisle,Saint-Augustin-de-Desmaures,,129713,46.750189469280194,-71.38905344021526
169021,Côte De Salaberry,Québec,La Cité-Limoilou,,46.80693356060821,-71.22826784241192
164539,Rue D'Argenson,Québec,La Cité-Limoilou,,46.81239586698116,-71.23502248173631
248,Rue Saint-Michel,L'Ancienne-Lorette,,116654,46.802939674235574,-71.35499446008228
3040,3e Avenue,Québec,La Cité-Limoilou,100384,46.82318090408178,-71.2266417013087
13703,,Québec,La Cité-Limoilou,107693,46.82706864277959,-71.25101121788944
2823,18e Rue,Québec,La Cité-Limoilou,104680,46.833008875746806,-71.2311367192326
13591,Rue de Bourges,Québec,Charlesbourg,120950,46.8633155559687,-71.24681234275917
12748,Rue Saint-Anselme,Québec,La Cité-Limoilou,104865,46.8147336780878,-71.23129423616727
6135,Rue George-Muir,Québec,Charlesbourg,123833,46.89397066775951,-71.31831223625282
166862,Boulevard Raymond,Québec,Beauport,,46.880057724179025,-71.1817681184608
8787,Boulevard Talbot,Québec,Charlesbourg,127072,46.91767759306808,-71.34269210963795
8349,Avenue de Châtenois,Québec,Charlesbourg,123024,46.868482963350004,-71.25483462642948
960,Boulevard des Capucins,Québec,La Cité-Limoilou,101115,46.8269446418214,-71.22281528669234
164486,Rue Saint-Anselme,Québec,La Cité-Limoilou,,46.81189954182933,-71.22937527042988
166680,23e Avenue,Saint-Augustin-de-Desmaures,,,46.74432963873376,-71.40432284994522
236,Rue Jandomien,L'Ancienne-Lorette,,116663,46.80436058277496,-71.35058479613461
168990,Avenue Jules-Verne,Québec,Sainte-Foy–Sillery–Cap-Rouge,,46.771102297038134,-71.36488066907664
1333,Rue Chapman,L'Ancienne-Lorette,,117639,46.812831602493624,-71.34368319825722
18435,Rue de Champagne,Québec,Sainte-Foy–Sillery–Cap-Rouge,119234,46.75760347549552,-71.30347245053441
12958,Boulevard Wilfrid-Hamel,Québec,Les Rivières,,46.802505760471504,-71.273956884761
298,Rue Beauséjour,L'Ancienne-Lorette,,117466,46.81230101698532,-71.36802303208114
12743,Rue Jeanne-d'Arc,Québec,La Cité-Limoilou,102712,46.80443116691807,-71.23570662447382
14507,Rue Frenette,Québec,Sainte-Foy–Sillery–Cap-Rouge,122848,46.81449315681353,-71.37182958810197
1468,Rue Roland,Québec,Les Rivières,104532,46.86133647217601,-71.3304248385842
19400,Chemin Saint-Louis,Québec,Sainte-Foy–Sillery–Cap-Rouge,118648,46.78862977449627,-71.24715063636741
12759,Boulevard Bastien,Québec,Les Rivières,105237,46.853414423383356,-71.31346014967293
10981,Boulevard Saint-Jacques,Québec,Les Rivières,201716,46.84890755324204,-71.3454321447212
7903,Rue Douglas,Québec,Charlesbourg,123964,46.89379150868849,-71.30645530883585
1462,Boulevard Savard,Québec,Les Rivières,104921,46.85761620297224,-71.33727894417294
11412,Rue de Lunenburg,Québec,Les Rivières,141487,46.84196601376696,-71.33720286264251
19639,Grande Allée Ouest,Québec,Sainte-Foy–Sillery–Cap-Rouge,118629,46.79007486325914,-71.24513885357236
12570,Boulevard Auclair,Québec,Sainte-Foy–Sillery–Cap-Rouge,122181,46.77706688914979,-71.35897363096913
14770,Avenue du Rang-Saint-Ignace,Québec,Beauport,125817,46.91529207736581,-71.20757594999962
3903,Boulevard Wilfrid-Hamel,Québec,Sainte-Foy–Sillery–Cap-Rouge,200168,46.771490289542776,-71.38243397253679
44244,Rue de Trinidad,Québec,Les Rivières,201345,46.84349464939092,-71.33410885774398
3613,Rue Saint-Charles,Québec,Les Rivières,104956,46.85381287440067,-71.32939570357483
11270,Boulevard Bastien,Québec,Les Rivières,200151,46.855625586585404,-71.3404598968715
47775,Rue du Caire,Québec,Les Rivières,201728,46.849341859047605,-71.34093953924392
1477,Rue Rodier,Québec,Les Rivières,104510,46.85684612416316,-71.3370354216934
18078,Avenue de la Médecine,Québec,Sainte-Foy–Sillery–Cap-Rouge,200534,46.777745154194456,-71.27554160025188
163717,Avenue de Brunoy,Québec,Charlesbourg,,46.86285265573107,-71.24958204416305
163627,Rue De Lavalette,Québec,Charlesbourg,,46.86251855303208,-71.2466586029554
87133,Rue des Sureaux,Québec,Charlesbourg,,46.87691843279444,-71.28238265368509
15060,Avenue Jacques-Ibert,Québec,Les Rivières,102676,46.821490383404814,-71.32508929108934
63139,Rue des Samares,Québec,Charlesbourg,201509,46.88524558847627,-71.27105509224656
192,Rue Abraham-Martin,Québec,La Cité-Limoilou,,46.82226576406275,-71.20085419313016
42327,Rue du Panorama,Québec,Beauport,201384,46.90010262160488,-71.21635343681265
2678,Boulevard de l'Ormière,Québec,La Haute-Saint-Charles,103872,46.84342480043097,-71.36642372398205
572,Boulevard Lebourgneuf,Québec,Les Rivières,106229,46.83547989074677,-71.29696950447854
6113,Rue de l'Étoile,Québec,Charlesbourg,124111,46.89472303056728,-71.29546180361747
19787,Rue de la Place-Philippe,Québec,Sainte-Foy–Sillery–Cap-Rouge,117781,46.79061632839441,-71.26668092967867
10487,Rue Étienne-Dubreuil,Québec,Les Rivières,200481,46.828656789060425,-71.27447473998375
6115,Rue James-Carmichael,Québec,Charlesbourg,124106,46.89580870405469,-71.29448218492756
12446,Boulevard Père-Lelièvre,Québec,Les Rivières,104094,46.811600958377376,-71.29746078669262
12775,Rue Le Mesnil,Québec,Les Rivières,103481,46.84318666305567,-71.29626717756379
163705,64e Rue Ouest,Québec,Charlesbourg,,46.85206575118926,-71.26156293926428
19182,Chemin Saint-Louis,Québec,Sainte-Foy–Sillery–Cap-Rouge,118254,46.76634903927939,-71.27368520896847
167486,Rue Hains,Québec,Beauport,,46.90343014730574,-71.2018770288352
164313,Rue des Pins Ouest,L'Ancienne-Lorette,,117004,46.808026840410314,-71.36739898520074
6476,Place Marie-Rémillard,Québec,Beauport,126953,46.89549259710482,-71.22193601288083
6443,Rue De Montherlant,Québec,Beauport,127124,46.88727255864967,-71.22151380427849
11782,Rue du Carrefour,Québec,Beauport,,46.86064290955104,-71.21852892054072
13082,Rue Franck,Québec,La Haute-Saint-Charles,102254,46.842350922664274,-71.3808923261103
1318,Rue Damiron,L'Ancienne-Lorette,,117591,46.81392885704814,-71.34967898706303
447,Rue Laurendeau,L'Ancienne-Lorette,,117283,46.79796076724128,-71.34829521586569
6066,Rue Varèse,Québec,Beauport,126239,46.90127358110894,-71.21037568686832
11737,Rue du Grand-Bourg,Québec,La Haute-Saint-Charles,124954,46.864338012043504,-71.43515455071527
9630,Avenue de la Montagne Est,Québec,La Haute-Saint-Charles,124726,46.8438658792695,-71.42996070838156
11820,Avenue Joseph-Casavant,Québec,Beauport,,46.87307707177021,-71.20397647976199
13123,Rue des Neiges,Québec,La Haute-Saint-Charles,103781,46.84476529053574,-71.37065226793801
168729,Rue des Canoés,Québec,La Haute-Saint-Charles,,46.842339909845116,-71.40650886189414
1487,Boulevard Valcartier,Québec,La Haute-Saint-Charles,,46.88749222091878,-71.40345434943085
13683,Boulevard Auclair,Québec,Sainte-Foy–Sillery–Cap-Rouge,122185,46.78060099467191,-71.35612185006481
7144,Rue du Terroir,Québec,Beauport,126591,46.86532805156408,-71.20473678757338
6307,Rue Sauriol,Québec,Beauport,126110,46.8561483501368,-71.18643892867766
4789,119e Rue,Québec,Beauport,127073,46.87262891177305,-71.16199909327622
19049,Chemin Saint-Louis,Québec,Sainte-Foy–Sillery–Cap-Rouge,118259,46.76486851212852,-71.27723054163651
11169,8e Avenue,Québec,La Cité-Limoilou,100474,46.834547727427854,-71.23224362042492
4702,Rue Lucien,Québec,Beauport,125969,46.91439926348872,-71.20523150221693
4996,Rue Milton,Québec,Sainte-Foy–Sillery–Cap-Rouge,123072,46.810065630063036,-71.39017602644188
2993,Boulevard Langelier,Québec,La Cité-Limoilou,102917,46.81068753650272,-71.23010482083777
361,Rue Chambord,L'Ancienne-Lorette,,116995,46.802928882138,-71.36624001624912
11983,Rue des Grandes-Marées,Québec,Sainte-Foy–Sillery–Cap-Rouge,,46.74119866479765,-71.35873093378545
14164,Boulevard Louis-XIV,Québec,Beauport,128653,46.877092313367925,-71.17036610947345
8056,Rue Isaïe,Québec,Beauport,128481,46.88742519126452,-71.15735048419641
6685,Rue Fresnel,Québec,Sainte-Foy–Sillery–Cap-Rouge,121870,46.77232192227804,-71.37284773837844
6071,Rue De Chambonnières,Québec,Beauport,126746,46.902259602571235,-71.21237003146693
6411,Route 138,Saint-Augustin-de-Desmaures,,201915,46.7445508637743,-71.45091865378484
13817,Rue Germaine-Lecours,Québec,Sainte-Foy–Sillery–Cap-Rouge,121650,46.76667817636772,-71.3682347568057
165631,Avenue Saint-Sacrement,Québec,La Cité-Limoilou,,46.79575802252999,-71.25369530555507
5942,Rue du Carrefour,Québec,Beauport,,46.86124427173173,-71.21770825629437
4786,Avenue Joseph-Casavant,Québec,Beauport,128217,46.87128425314624,-71.20608099123142
5871,Avenue Alphonse-Dupuis,Québec,Beauport,126692,46.8627067060665,-71.22879977274485
5876,Avenue Mallet,Québec,Beauport,126703,46.859712942509056,-71.2247560777889
4784,Avenue Joseph-Casavant,Québec,Beauport,128217,46.86958527937431,-71.20543494998608
42007,Rue des Maraîchers,Québec,Beauport,200568,46.87691960517359,-71.20921521588068
6062,Avenue Alphonse-Dupuis,Québec,Beauport,126689,46.864045980808946,-71.23054121672179
167687,Rue Père-Marquette,Québec,La Cité-Limoilou,,46.79871975721309,-71.23931332959178
4182,Rue Corbin,Québec,Beauport,129233,46.886986262634316,-71.19271307361882
14488,Rue De Méjanès,Québec,Beauport,127602,46.86596599933871,-71.23345956442998
4954,Rue Saint-Yves,Québec,Sainte-Foy–Sillery–Cap-Rouge,122575,46.7659112970395,-71.38209983445925
14741,Avenue Alphonse-Dupuis,Québec,Beauport,126691,46.86316964417073,-71.22774128256978
6497,Rue Jobidon,Québec,Beauport,127036,46.89267780234357,-71.2218723717712
7472,Rue René-Vigneron,Québec,Beauport,126672,46.8623464527684,-71.22109283654791
7471,Rue Clemenceau,Québec,Beauport,126678,46.86160870318444,-71.22021494419646
167483,Rue Alfred,Québec,Beauport,,46.91602503242276,-71.20040086768935
72083,Rue Fabre,L'Ancienne-Lorette,,116679,46.80711111190498,-71.35129136582826
164307,Rue Laval,L'Ancienne-Lorette,,,46.80824351132032,-71.37076665599375
163850,Rue Soumande,Québec,La Cité-Limoilou,,46.83209578226323,-71.24706684802702
4802,Boulevard Raymond,Québec,Beauport,135026,46.92165899838079,-71.19929990685475
19206,Rue Pierre-Martin,Québec,Sainte-Foy–Sillery–Cap-Rouge,118311,46.773174003644904,-71.28730648020937
3777,Boulevard René-Lévesque Ouest,Québec,La Cité-Limoilou,104482,46.7909084334064,-71.25050120924807
70166,Chemin Saint-Louis,Québec,Sainte-Foy–Sillery–Cap-Rouge,116417,46.78465925734382,-71.24554732431616
42328,Rue du Panorama,Québec,Beauport,201383,46.89968755811348,-71.21730352973049
11823,Avenue Joseph-Casavant,Québec,Beauport,,46.87235715097821,-71.20910268695178
18973,Rue des Châtelets,Québec,Sainte-Foy–Sillery–Cap-Rouge,119562,46.76501270826317,-71.29701275976653
14510,Rue du Hibou,Québec,Beauport,139102,46.87247048566538,-71.22104593008224
15586,Rue Clemenceau,Québec,Beauport,,46.87083218157606,-71.20443064167873
11394,Rue Blanche-Lamontagne,Québec,Beauport,200471,46.86576450661629,-71.21436515951055
6523,Rue François-De Villars,Québec,Beauport,136887,46.86996530248582,-71.22491565750359
7520,Boulevard Albert-Chrétien,Québec,Beauport,127909,46.86563007536116,-71.21779346894549
165886,2e Avenue,Québec,La Cité-Limoilou,,46.83387403462439,-71.23842744234682
5937,Boulevard Sainte-Anne,Québec,Beauport,,46.85203362966358,-71.19650676974295
3778,Rue De Callières,Québec,La Cité-Limoilou,100998,46.79183807285657,-71.25168918379033
164538,Rue D'Argenson,Québec,La Cité-Limoilou,,46.81207527379717,-71.23389488959508
169405,Rue de Rotterdam,Saint-Augustin-de-Desmaures,,,46.758819599146406,-71.4466852075635
4779,Avenue du Cénacle,Québec,Beauport,,46.87229404342316,-71.1932196669332
3976,Avenue Royale,Québec,Beauport,129273,46.87972744467291,-71.16484242541928
30168,Avenue Saint-Jean-Baptiste,Québec,Les Rivières,105191,46.805934342888605,-71.33522200095906
7586,Rue des Dominicaines,Québec,Beauport,,46.87531502912818,-71.1892956988621
27285,Boulevard René-Lévesque Est,Québec,La Cité-Limoilou,106257,46.80820028601363,-71.21964082048865
169337,Rue De Celles,Québec,Les Rivières,101245,46.82697184199352,-71.30989416174658
11376,Boulevard Lebourgneuf,Québec,Les Rivières,,46.82666764705996,-71.31562689787245
115283,Rue des Albertains,Québec,Charlesbourg,,46.9000496220696,-71.29392407735769
14085,Rue Ozias-Leduc,Québec,Beauport,127844,46.87788675234306,-71.21583623389807
5857,Avenue Mallet,Québec,Beauport,126701,46.859483710326096,-71.22351976675009
11809,Rue de la Girouille,Québec,Beauport,144166,46.87726907123015,-71.2111575554137
86805,Montée des Cinquante,Québec,La Cité-Limoilou,,46.82967102886663,-71.19901897149877
7189,Stationnement Centre hosp. Robert-Giffard,Québec,Beauport,,46.85054732696712,-71.2232857817141
167428,Rue de la Fraternité,Québec,Beauport,,46.891665932268666,-71.16466000327561
6900,Rue Montpellier,Québec,Beauport,127106,46.88333650905884,-71.21964179519068
6724,Avenue Claire,Québec,Beauport,127281,46.90014484646161,-71.2039210525873
19306,Avenue Chapdelaine,Québec,Sainte-Foy–Sillery–Cap-Rouge,117799,46.79434483630957,-71.26795360843559
7190,Stationnement Centre hosp. Robert-Giffard,Québec,Beauport,,46.84886593581706,-71.2216567912801
2911,Rue du Marais,Québec,Les Rivières,,46.82478664975923,-71.28926433580797
10363,Rue Boisfort,Québec,Beauport,128152,46.89625023851333,-71.17528574686287
9187,Rue Noirefontaine,Québec,Sainte-Foy–Sillery–Cap-Rouge,114642,46.756419368036866,-71.34269731723602
6707,Rue Joseph-Guillemette,Québec,Sainte-Foy–Sillery–Cap-Rouge,122507,46.76200041354791,-71.39284635655362
9273,Rue Saint-Félix,Québec,Sainte-Foy–Sillery–Cap-Rouge,114420,46.7389941082849,-71.36124375293102
4048,Rue Edmond-Massicotte,Québec,Sainte-Foy–Sillery–Cap-Rouge,143266,46.76281223760182,-71.36124721817967
3695,Boulevard Wilfrid-Hamel,Québec,Les Rivières,,46.82210267074407,-71.2518924917422
10149,Rue Saint-Amour,Québec,Charlesbourg,124000,46.894073845369,-71.31033994170122
14356,Rue de Chavannes,Québec,Charlesbourg,134028,46.928379858006004,-71.32054316132404
6980,Rue de Fribourg,Québec,Charlesbourg,125391,46.936053803526576,-71.3221974101913
8351,Rue de Chamonix,Québec,Charlesbourg,,46.86960651999328,-71.25263400954006
5736,Boulevard Louis-XIV,Québec,Beauport,127986,46.89762878265062,-71.1827507942136
15201,Rue du Prince-Édouard,Québec,La Cité-Limoilou,104000,46.816603000290755,-71.22634436307058
9387,Rue Roland-Fiset,Québec,La Haute-Saint-Charles,115540,46.86769555094984,-71.34193972047055
10094,Avenue du Lac-Saint-Charles,Québec,La Haute-Saint-Charles,118857,46.903672006632775,-71.37237347232825
5014,Avenue Notre-Dame,Québec,Sainte-Foy–Sillery–Cap-Rouge,123473,46.795928090278,-71.43789106871853
4883,Boulevard Wilfrid-Hamel,Québec,Sainte-Foy–Sillery–Cap-Rouge,135327,46.78658205011803,-71.35856965215238
34965,Rue Elzéar-Verreault,Québec,Beauport,200476,46.873292406977285,-71.21346934693332
9261,Rue du Haut-Bois,Québec,Sainte-Foy–Sillery–Cap-Rouge,114246,46.7483756552907,-71.37076931731141
14098,Rue La Ferté,Québec,Beauport,127857,46.878244390203044,-71.21715298481591
24403,Avenue Joseph-Casavant,Québec,Beauport,,46.870641987672485,-71.2037788010767
167521,Rue La Valterie,Québec,Beauport,,46.878509646689395,-71.21787770574932
9874,Rue de la Promenade-des-Soeurs,Québec,Sainte-Foy–Sillery–Cap-Rouge,114185,46.74606071171055,-71.36139832998717
10143,Rue de la Parmentière,Québec,Beauport,138209,46.87654564229872,-71.21281372807016
11792,Boulevard Albert-Chrétien,Québec,Beauport,,46.866265392017134,-71.21773376947743
10139,Rue de la Parmentière,Québec,Beauport,127893,46.87549892246627,-71.21184652508875
15105,Avenue Joseph-Casavant,Québec,Beauport,,46.872088586457934,-71.20364838629285
19604,Boulevard Laurier,Québec,Sainte-Foy–Sillery–Cap-Rouge,118654,46.78589624656187,-71.25253514515485
7227,Rue Doyon,Québec,Beauport,128946,46.86833566344056,-71.1871324832052
2168,Avenue De Salaberry,Québec,La Cité-Limoilou,104790,46.80330519628679,-71.22353153693321
11824,Rue Clemenceau,Québec,Beauport,,46.870538689570445,-71.20833128881985
8938,Boulevard de l'Ormière,Québec,La Haute-Saint-Charles,103870,46.840904300064,-71.36266280355899
14749,Boulevard Sainte-Anne,Québec,Beauport,130103,46.85703127320961,-71.17969768900811
624,Route de l'Aéroport,Québec,Sainte-Foy–Sillery–Cap-Rouge,117174,46.80653348786785,-71.3804810693709
5178,Boulevard Wilfrid-Hamel,Québec,Les Rivières,106554,46.802393291745005,-71.33244757242211
13965,Rue Jean-Pinguet,Québec,Beauport,127617,46.87006079507231,-71.22320519891936
14044,Boulevard Adrien-Dufresne,Québec,Beauport,127904,46.872207458741556,-71.21875313834848
6381,Rue du Carrefour,Québec,Beauport,,46.86220272979391,-71.21591273982011
56085,Rue d'Édimbourg,Québec,La Haute-Saint-Charles,,46.85380828834263,-71.42823067767664
5875,Avenue Mallet,Québec,Beauport,126704,46.860629682751444,-71.2259889449502
6890,Rue Laflèche,Québec,Beauport,127829,46.875593007116834,-71.21667776102164
34967,Rue Elzéar-Verreault,Québec,Beauport,200478,46.87363872063532,-71.21101847227872
14008,Rue Joncas,Québec,Beauport,126512,46.85353768067779,-71.215804395621
5766,Rue Courcival,Québec,Beauport,128167,46.89598691458992,-71.172517146884
14133,Avenue Joseph-Casavant,Québec,Beauport,128217,46.87235457473027,-71.20635309385871
2428,Carré Richard,Québec,La Haute-Saint-Charles,104390,46.830676319985365,-71.3555729339897
11784,Rue Clemenceau,Québec,Beauport,,46.86321349504589,-71.2172533608734
15008,Avenue Berlioz,Québec,La Haute-Saint-Charles,100732,46.84181857046703,-71.3842723263571
39771,Avenue des Affaires,Québec,La Haute-Saint-Charles,138827,46.863312546056726,-71.41728353594087
2662,Rue des Orties,Québec,La Haute-Saint-Charles,103880,46.84044265090321,-71.36614123076211
8905,Rue Albert-Trudel,Québec,La Haute-Saint-Charles,115062,46.85681140622582,-71.37225921404982
6892,Rue La Ferté,Québec,Beauport,127855,46.87725581182817,-71.21756526778017
9074,Rue Pierre-Curie,Québec,La Haute-Saint-Charles,115204,46.86126008925544,-71.35226556296111
1125,Rue de la Reine,Québec,La Cité-Limoilou,104335,46.81443435277335,-71.22906146676901
6891,Rue La Ferté,Québec,Beauport,127848,46.87473947170995,-71.21651423040821
12515,Rue Montrénault,Québec,Sainte-Foy–Sillery–Cap-Rouge,121512,46.766705134794805,-71.35047052805689
9940,Rue des Bosquets,Québec,La Haute-Saint-Charles,118412,46.890233579529834,-71.38305596902788
9115,Rue Monseigneur-Cooke,Québec,La Haute-Saint-Charles,103459,46.854769289097256,-71.38137473057307
13933,Rue De Chambonnières,Québec,Beauport,126752,46.90346878344568,-71.21300261536676
5509,Route 138,Saint-Augustin-de-Desmaures,,129075,46.74355144990093,-71.45844306904424
6670,Rue De Nerval,Québec,Sainte-Foy–Sillery–Cap-Rouge,121886,46.77283505885487,-71.3719184177469
5910,Rue Hardy,Québec,Beauport,126449,46.85868790642774,-71.20703342840777
1244,Boulevard Père-Lelièvre,Québec,Les Rivières,104104,46.81269669980735,-71.30706409603435
12137,Rue de l'Acropole,Québec,La Haute-Saint-Charles,138348,46.879138425858024,-71.33283835632668
19362,Boulevard Neilson,Québec,Sainte-Foy–Sillery–Cap-Rouge,120708,46.75297244300215,-71.32688023361851
13699,Boulevard Saint-Jacques,Québec,Les Rivières,105174,46.82830603362834,-71.32497742626587
9362,Rue de la Faune,Québec,La Haute-Saint-Charles,115690,46.8670146352666,-71.34699323199382
102487,Rue des Sports,Québec,Sainte-Foy–Sillery–Cap-Rouge,,46.783847795902965,-71.28120420991021
167423,Avenue des Sablonnières,Québec,Beauport,,46.90555987405884,-71.20009089299195
6526,Rue Adolphe-Légaré,Québec,Beauport,127630,46.871324917092494,-71.22261180679676
11810,Rue de la Paumelle,Québec,Beauport,144147,46.87892630174283,-71.2111192709223
14742,Avenue Mallet,Québec,Beauport,126705,46.86151331992493,-71.22717668262611
56726,Boulevard Bastien,Québec,Les Rivières,100575,46.85824195829814,-71.33739874563891
168922,Avenue Raymond-Blouin,Québec,Les Rivières,100779,46.81329898223472,-71.28342542909448
14007,Rue du Carrefour,Québec,Beauport,,46.8605705947978,-71.21689359307533
18902,Chemin de la Gare,Québec,Sainte-Foy–Sillery–Cap-Rouge,,46.75383352704691,-71.30202192809388
7468,Rue Clemenceau,Québec,Beauport,126660,46.86263971623892,-71.21726286144525
166782,Rue Marius-Fortier,Québec,Beauport,,46.89383432891954,-71.18314705179397
6767,Avenue Saint-Michel,Québec,Beauport,127551,46.89126087349971,-71.20964177636775
26324,Rue de la Constellation,Québec,Charlesbourg,200903,46.89430412365348,-71.29400582881642
113377,Rue des Calèches,Québec,La Haute-Saint-Charles,,46.841216848752794,-71.40229960076366
167496,Avenue des Rapides,Québec,Beauport,,46.892543382938015,-71.15795435709484
28893,Rue de la Constellation,Québec,Charlesbourg,200905,46.89647898254085,-71.2895695370013
27286,Boulevard René-Lévesque Est,Québec,La Cité-Limoilou,106256,46.80764119820251,-71.22083690624774
104724,Rue Bresse,Québec,Sainte-Foy–Sillery–Cap-Rouge,,46.80827418107414,-71.38637150706987
64085,Boulevard du Lac,Québec,Charlesbourg,,46.92142853742841,-71.31852048358714
6587,Boulevard des Chutes,Québec,Beauport,,46.870509875893525,-71.17409544925822
165378,Avenue du Lac-Saint-Charles,Québec,La Haute-Saint-Charles,,46.904703706485364,-71.37307716181292
14099,Rue Le Chenez,Québec,Beauport,127827,46.87756183055581,-71.21830391651139
5854,Rue Rhéaume,Québec,Beauport,126717,46.85691408017967,-71.2227377164448
5862,Rue Marmen,Québec,Beauport,127588,46.86689748257991,-71.23234890852018
6524,Rue François-De Villars,Québec,Beauport,127623,46.870512753553975,-71.22360353551832
11992,Rue de la Paumelle,Québec,Beauport,128120,46.877548096490656,-71.2043602295359
11821,Avenue Joseph-Casavant,Québec,Beauport,,46.87183245557231,-71.20466869483917
7469,Avenue Des Moulineaux,Québec,Beauport,126673,46.86243399639647,-71.21970619576217
10132,Rue Clemenceau,Québec,Beauport,128223,46.86845234438091,-71.20566736965233
6888,Rue Ozias-Leduc,Québec,Beauport,127866,46.87624747067063,-71.21591860059914
13969,Rue Dagneau,Québec,Beauport,201954,46.867349957575136,-71.2335971267654
167518,Place de Dorceau,Québec,Beauport,,46.86051695347601,-71.22427283665486
3746,Rue John-Molson,Québec,Les Rivières,,46.79503268717226,-71.32185022483006
1494,Rue Jean-Marchand,Québec,Les Rivières,202104,46.81831567989101,-71.34441428113448
9870,Rue Caroline-Valin,Québec,Sainte-Foy–Sillery–Cap-Rouge,114215,46.74856699319882,-71.36126899723526
5856,Avenue de Préaux,Québec,Beauport,126698,46.85814222011732,-71.22262999779511
11786,Boulevard Albert-Chrétien,Québec,Beauport,,46.86475088309916,-71.21823373177475
6063,Rue Robert-Drouin,Québec,Beauport,126711,46.86458675173648,-71.22962550645185
209,Rue du Père-Bouvart,L'Ancienne-Lorette,,139226,46.820723566267915,-71.36174124360328
9296,Rue de la Rivière,Québec,Sainte-Foy–Sillery–Cap-Rouge,114732,46.761953702654125,-71.35968325734414
11825,Avenue Nordique,Québec,Beauport,147066,46.890481197072965,-71.18938299436019
20565,Boulevard Robert-Bourassa,Québec,Les Rivières,200150,46.85521796738358,-71.34134328474342
7140,Avenue Saint-David,Québec,Beauport,126485,46.857910525818184,-71.20875975555755
14223,Rue des Merisiers,Québec,La Haute-Saint-Charles,119296,46.88661915074608,-71.37135018473327
6535,Avenue Saint-Rédempteur,Québec,Beauport,126297,46.85185052146765,-71.20690067768618
19326,Rue Rochette,Québec,Sainte-Foy–Sillery–Cap-Rouge,117730,46.788184585793864,-71.26614540391284
151443,Rue de Dumontier,Québec,Sainte-Foy–Sillery–Cap-Rouge,,46.777072982105885,-71.30101631359463
1678,Rue Bernard,Québec,La Haute-Saint-Charles,100736,46.846302509440456,-71.37625099278293
6352,Rue Clemenceau,Québec,Beauport,,46.87826750103176,-71.19147897909478
169181,,Québec,Sainte-Foy–Sillery–Cap-Rouge,,46.77380771768212,-71.31289402407735
164478,Rue Saint-Bernard,Québec,La Cité-Limoilou,,46.809585624226045,-71.244581939469
169412,Rue de l'Hêtrière,Saint-Augustin-de-Desmaures,,,46.75215703182943,-71.37973886985824
4758,Place de l'Arcandier,Québec,Beauport,127274,46.900821833759665,-71.20623905068797
7079,Rue Dagneau,Québec,Beauport,201954,46.867943300999386,-71.23471505306597
5873,Avenue Mallet,Québec,Beauport,126710,46.86381510172953,-71.2288345789592
19091,Avenue du Chanoine-Scott,Québec,Sainte-Foy–Sillery–Cap-Rouge,120056,46.776458064829185,-71.2983898412063
5929,Avenue du Sous-Bois,Québec,Beauport,125810,46.863760139803205,-71.17015034928822
6513,Rue du Harfang,Québec,Beauport,138166,46.87451492763131,-71.22144085368824
4785,Avenue Joseph-Casavant,Québec,Beauport,128217,46.87013665032109,-71.20581506199738
14736,Avenue Mallet,Québec,Beauport,126699,46.85917646013899,-71.22221461458481
34964,Rue d'Everell,Québec,Beauport,200564,46.8724517549982,-71.21245117162606
18186,Avenue de Bourgogne,Québec,Sainte-Foy–Sillery–Cap-Rouge,119744,46.76729464744563,-71.31238033436382
168356,,Québec,La Cité-Limoilou,,46.81700464216321,-71.2277885597047
5874,Rue des Métayers,Québec,Beauport,126687,46.862242366673115,-71.22659972069921
10452,Rue La Valterie,Québec,Beauport,127878,46.87972634187777,-71.21493091342282
15106,Rue Clemenceau,Québec,Beauport,,46.8700942270245,-71.20425894170094
17963,Boulevard Champlain,Québec,Sainte-Foy–Sillery–Cap-Rouge,,46.791401782283536,-71.22843118112353
3487,Rue du Gîte,Québec,Les Rivières,102375,46.84832282895865,-71.27799671171934
15564,Boulevard Pierre-Bertrand,Québec,Les Rivières,112891,46.82972674873924,-71.27788526829553
10968,Rue De Méjanès,Québec,Beauport,127605,46.8675438693381,-71.23559397799211
3425,Rue de l'Abbé-Pierre,Québec,Sainte-Foy–Sillery–Cap-Rouge,122606,46.76707056467583,-71.38527573428418
6474,Rue du Serpolet,Québec,Beauport,126944,46.895670980863606,-71.22528398050268
11788,Boulevard Albert-Chrétien,Québec,Beauport,,46.86613441458967,-71.21920292235805
14070,Avenue de Montmirail,Québec,Beauport,126715,46.855727448830315,-71.2222982020314
10146,Rue de la Parmentière,Québec,Beauport,141686,46.87894763307231,-71.21371960558703
12152,Rue du Grand-Sault,Québec,Beauport,128496,46.88735506521808,-71.15339212999974
